ID,Adresse,Bilder,Features,From,Grundgriss,Grundstück,Haus/Wohnung,Kaltmiete,Kaufpreis,Lat,Lon,Miete/Kauf,PLZ,Stadt,Stadtteil,Titel,Wohnfläche,Zimmer,von privat,From_UUID
32158558,"Cotta, Dresden",12,[Einbauküche],Frau Sabine Socha,True,,Wohnung,395 €,,,,Miete,01157,Dresden,Cotta,"Sonn. ruh. 2-RW m. Wohnküche und EBK, 25 m² gr. WZ u. Laminat in DD-Cotta",60 m²,2,False,e1b44548-d76b-39d6-a168-11eedfebe535
33436307,"Leuckartstraße 4, Kaditz, Dresden",6,[Garten],Frau K. Heller,False,,Wohnung,375 €,,51.08669,13.70031,Miete,01139,Dresden,Kaditz,Ruhe und Sonne am Elbepark,55 m²,2,False,d2341837-abcd-3fb1-9976-0fe5445e5eff
34342048,"Reisewitzer Straße 66, Löbtau-Süd, Dresden",6,[Einbauküche],Frau K. Stelmaszyk,True,,Wohnung,475 €,,51.03619,13.70182,Miete,01159,Dresden,Löbtau-Süd,Schöne 3-Zimmerwohnung im sanierten Altbau mit Einbauküche,66 m²,3,False,f176e6d5-ae92-3950-a10b-63809cddaeb9
36275407,"Pfotenhauer Straße 78, Johannstadt-Nord, Dresden",5,[Einbauküche],Frau M. Müller,True,,Wohnung,257 €,,51.05777,13.77354,Miete,01307,Dresden,Johannstadt-Nord,Hübsche Singlewohnung mit hochwertiger Ausstattung Nähe Uniklinik,27 m²,1,False,9006fd9e-e9fb-3f05-a584-b641c55f5f5f
37061750,"Bürgerstraße 77, Pieschen-Süd, Dresden",8,[Einbauküche],Frau K. Stelmaszyk,True,,Wohnung,336 €,,51.07729,13.71924,Miete,01127,Dresden,Pieschen-Süd,Gemütliche 2-Zi.-Wohnung mit Einbauküche,48 m²,2,False,f176e6d5-ae92-3950-a10b-63809cddaeb9
38613429,"Kötzschenbroder Straße 42, Mickten, Dresden",6,"[Balkon/Terrasse, Einbauküche]",Frau K. Stelmaszyk,True,,Wohnung,340 €,,51.07775,13.70748,Miete,01139,Dresden,Mickten,2-Zi.-Wohnung mit Super-Ausstattung direkt an der Elbe,42 m²,2,False,f176e6d5-ae92-3950-a10b-63809cddaeb9
40753390,"Äußere Neustadt (Antonstadt), Dresden",5,[],Frau Sabine Socha,True,,Wohnung,700 €,,,,Miete,01099,Dresden,Äußere Neustadt (Antonstadt),Schöne elbnahe 3-RW (WG geeign.) mit Wohnküche  in der Neustädter Citylage unweit v. Rosengarten,"82,34 m²",3,False,e1b44548-d76b-39d6-a168-11eedfebe535
42254349,"Hafenstrasse  2, Leipziger Vorstadt, Dresden",15,"[Balkon/Terrasse, Einbauküche, Garten]", HÄSE-IMMOBILIEN,True,,Wohnung,,210.000 €,51.06358,13.73421,Kauf,01097,Dresden,Leipziger Vorstadt,"Kleine Perle !! Dachgeschoss-Maisonette am Elbufer mit Blick zur Semperoper, Dachterrasse","109,4 m²",5,False,45308965-2040-3fcf-8227-f4ec56aed797
44112920,"Hauptstr. 30d, Bühlau/Weißer Hirsch, Dresden",19,"[Provisionsfrei*, Balkon/Terrasse]",Frau Nora Taschew,True,,Wohnung,,225.000 €,,,Kauf,01454,Dresden,Bühlau/Weißer Hirsch,Großzügiges Wohnen-direkt an der Dresdner Heide,120 m²,4,False,99782221-6899-3ba0-ac7a-6a3e3e53a073
44559082,"Altplauen 4, Plauen, Dresden",2,[Garten],Herr Petkow,True,,Wohnung,340 €,,51.02969,13.70577,Miete,01187,Dresden,Plauen,Hochwertig sanierte 2-Raum-Wohnung,52 m²,2,True,cdfeeba2-4ac4-3a54-b9a9-b1ed3d5d1e62
44613800,"Troppauer Straße 19, Laubegast, Dresden",4,[Einbauküche],Frau Pilz,True,,Wohnung,170 €,,51.02784,13.83128,Miete,01279,Dresden,Laubegast,gemütliche 1-Raumwohnung in Laubegast,"18,32 m²",1,False,b55bf1ac-7688-31d1-90b1-2e28e6b2cd04
44969575,"Waldheimer Str. 27, Löbtau-Süd, Dresden",4,"[Einbauküche, Garten]",Frau K. Heller,True,,Wohnung,330 €,,51.0351,13.70127,Miete,01159,Dresden,Löbtau-Süd,Junges Wohnen - Nähe TU,53 m²,2,False,d2341837-abcd-3fb1-9976-0fe5445e5eff
45822637,"Holbeinstraße 98, Striesen-West, Dresden",6,"[Balkon/Terrasse, Garten]", ImmPrima GmbH Katja Bärisch,True,,Wohnung,670 €,,51.0473,13.77907,Miete,01309,Dresden,Striesen-West,Familienfreundliche 3-Zimmer Wohnung mit Balkon in Striesen,80 m²,3,False,c6fc9057-4740-3d1e-a735-3cc63e644a0f
47416718,"Krenkelstraße 40, Striesen-West, Dresden",22,"[Balkon/Terrasse, Garten]",Herr Steffen Hallmann,True,,Wohnung,,108.700 €,51.04819,13.77736,Kauf,01309,Dresden,Striesen-West,"**Striesen-energieeffiziente Stadtwohnung mit Südwest-Balkon, Wohnküche, Abstellr. usw.","75,58 m²",3,False,88fe3eac-769c-367c-a665-c30637a4308e
47873638,"Bühnaustraße 31, Löbtau-Süd, Dresden",2,"[Balkon/Terrasse, Einbauküche, Garten]", Michael Freund,True,,Wohnung,,105.000 €,51.03954,13.6994,Kauf,01159,Dresden,Löbtau-Süd,Moderne Wohnung in schöner Lage mit Balkon und Fahrstuhl,"68,14 m²","2,5",False,05dffaec-a6a7-34c7-a997-4b5da3c54a4a
47959977,"Mildred-Scheel-Str. 4, Johannstadt-Nord, Dresden",9,"[Balkon/Terrasse, Einbauküche]",Herr Rudolf Hamann,True,,Wohnung,320 €,,51.05419,13.78382,Miete,01307,Dresden,Johannstadt-Nord,Singlewohnung EBK und kleiner Dachterrasse,"36,2 m²",1,False,9d2dad87-4bef-371f-af55-a1cd7d1232fe
48316426,"Rückertstr. 12, Pieschen-Nord/Trachenberge, Dresden",4,[Einbauküche],Frau Sabine Socha,True,,Wohnung,,50.000 €,51.0882,13.72542,Kauf,01129,Dresden,Pieschen-Nord/Trachenberge,Schicke kleine 2-RW mit EBK in Trachenberge,45 m²,2,False,e1b44548-d76b-39d6-a168-11eedfebe535
49079096,"Stollestr. 68, Löbtau-Nord, Dresden",6,[Garten],Frau Renate Boedecker,True,,Wohnung,351 €,,51.04377,13.68649,Miete,01159,Dresden,Löbtau-Nord,ruhige kl. 3-R-DG-Whg in DD-Löbtau WG-geeignet,54 m²,3,False,bf9bc17b-573e-3988-b2ae-e4a239abd83c
49158841,"Johannstadt-Nord, Dresden",17,[],Herr Jean Winkler,True,,Wohnung,475 €,,,,Miete,01307,Dresden,Johannstadt-Nord,Großräumige helle 2. Zi. - Wohnung im sanierten Altbau direkt an den Elbwiesen,"69,4 m²",2,False,e90e15fc-40f0-3f5a-8f2b-2fed53d342cc
50230763,"Grillparzerstraße 46, Cotta, Dresden",1,"[Balkon/Terrasse, Garten]",Herr Petkow,False,,Wohnung,250 €,,51.05364,13.68193,Miete,01157,Dresden,Cotta,Hochwertig sanierte 2-Raum-Wohnung,47 m²,2,True,cdfeeba2-4ac4-3a54-b9a9-b1ed3d5d1e62
51346504,"Striesen-West, Dresden",2,"[Balkon/Terrasse, Garten]",Frau Ines Griese,True,,Wohnung,"276,85 €",,,,Miete,01309,Dresden,Striesen-West,1-Zimmer-Wohnung mit Balkon in ruhiger Lage von Striesen gesucht?,"39,55 m²",1,False,788834da-9717-30d8-9121-1e732b4ca677
51419136,"Trachenberger Straße 14, Pieschen-Nord/Trachenberge, Dresden",7,[],Frau Juliane  Börner,False,,Wohnung,465 €,,51.08362,13.72738,Miete,01129,Dresden,Pieschen-Nord/Trachenberge,Wunderschöne 3-Zimmer-Wohnung in Trachau,"74,99 m²",3,False,03fc1324-07cf-3891-bb3a-ed060b44f3e4
51494734,"Sachsdorfer Straße 8, Cotta, Dresden",8,"[Balkon/Terrasse, Einbauküche]",Frau M. Müller,True,,Wohnung,560 €,,51.05147,13.69111,Miete,01157,Dresden,Cotta,Exklusive 2-Zi.-Wohnung in zentraler Lage,"69,43 m²",2,False,9006fd9e-e9fb-3f05-a584-b641c55f5f5f
51761276,"Katharinenstraße 12, Äußere Neustadt (Antonstadt), Dresden",6,[Garten], ImmPrima GmbH Katja Bärisch,True,,Wohnung,350 €,,51.06623,13.74882,Miete,01099,Dresden,Äußere Neustadt (Antonstadt),schöne Single-Wohnung mitten in der Neustadt,42 m²,2,False,c6fc9057-4740-3d1e-a735-3cc63e644a0f
51870915,"Frankenstr. 17, Striesen-Ost, Dresden",8,[Balkon/Terrasse],Frau Petra Friedrich,True,,Wohnung,498 €,,51.04957,13.79406,Miete,01309,Dresden,Striesen-Ost,Helle 3 Zimmer Familienwohnung in Dresden Striesen,"76,61 m²",3,False,99253c7a-9180-3993-8040-cb39e1ab7ee8
52372720,"Troppauer Straße 6, Laubegast, Dresden",1,[Balkon/Terrasse],Frau Pilz,True,,Wohnung,506 €,,51.02737,13.83094,Miete,01279,Dresden,Laubegast,schöne große 2-Raumwohnung unterm Dach mit Loggia,"68,55 m²",2,False,b55bf1ac-7688-31d1-90b1-2e28e6b2cd04
53658913,"Laasackerweg, Strehlen, Dresden",3,"[Provisionsfrei*, Balkon/Terrasse, Garten]",Herr E Dr. Müller-Hermann,True,,Wohnung,,128.000 €,51.02046,13.77059,Kauf,01219,Dresden,Strehlen,Top 3-Zimmer Wohnung mit TG,"62,5 m²",3,True,d5e4597f-41fb-30cf-b039-35f9ce558fd9
53850705,"Burgsdorffstr. 11, Trachau, Dresden",6,[Einbauküche],Herr Andreas Nitsche,False,,Wohnung,260 €,,51.09306,13.71812,Miete,01129,Dresden,Trachau,2-Raum-Wohnung im Souterrain eines MfH,"55,5 m²",2,True,bf57ec1d-1c87-36da-bcd9-67add1164a72
54289042,"Tolkewitz/Seidnitz-Nord, Dresden",4,"[Balkon/Terrasse, Garten]",Frau Ines Griese,True,,Wohnung,"343,04 €",,,,Miete,01279,Dresden,Tolkewitz/Seidnitz-Nord,Gemütliche 2-Zimmer-Wohnung mit Balkon in DD-Tolkewitz gesucht?,"53,6 m²",2,False,788834da-9717-30d8-9121-1e732b4ca677
54325781,"Bachmannstraße 4, Bühlau/Weißer Hirsch, Dresden",3,[Balkon/Terrasse],Frau Stefanie Alschwee,True,,Wohnung,500 €,,51.06152,13.84164,Miete,01324,Dresden,Bühlau/Weißer Hirsch,idyllisch & hell:  2 -Zimmer -Wohnung m. gr.Südbalkon in absolut ruhiger Villenlage von Bühlau,53 m²,2,False,0c0560d2-51cf-3a38-8175-142d49e8d422
54340157,"Klotzsche, Dresden",3,[Einbauküche],Frau Katrin Hähle,True,,Wohnung,,79.500 €,,,Kauf,01109,Dresden,Klotzsche,Ruhige Lage mit Blick in die Gärten,45 m²,2,False,03269460-a660-348e-8f91-01f8d6596cd2
54340291,"Klotzsche, Dresden",7,[Einbauküche],Frau Katrin Hähle,True,,Wohnung,,75.000 €,,,Kauf,01109,Dresden,Klotzsche,Klotzsche-Königswald - vermietet!,"45,03 m²",2,False,03269460-a660-348e-8f91-01f8d6596cd2
54479327,"Anna-Angermann-Straße 8, Loschwitz/Wachwitz, Dresden",17,"[Balkon/Terrasse, Einbauküche]",Herr Heinz Kossler,True,,Wohnung,1.290 €,,51.04734,13.82063,Miete,01326,Dresden,Loschwitz/Wachwitz,Gepflegtes Ambiente in Bestlage an der Elbe,130 m²,4,True,4dfa9707-2eb4-383a-aeae-fa2c4d400354
54635819,"Schaufußstr. 40, Blasewitz, Dresden",6,[Garten],Frau Claudia Friedrich,True,,Wohnung,330 €,,51.038,13.81017,Miete,01277,Dresden,Blasewitz,gepflegter Altbau in Elbnähe mit gr. Gemeinschaftsgarten,"57,13 m²",2,True,663d7561-0243-3eff-bd03-2980c7710f12
55025747,"Tharandterstr. 47, Löbtau-Süd, Dresden",16,"[Einbauküche, Garten]",Herr Achim Schwarz,True,,Wohnung,335 €,,51.03547,13.70449,Miete,01159,Dresden,Löbtau-Süd,"2 Raum Wohnung, Prov.frei, 1.Km zur Uni , mit Einbauküche",56 m²,2,True,78f99b96-d3f4-3d89-8780-c02342ce26aa
55065424,"Troppauer Str.  19, Laubegast, Dresden",4,[Einbauküche],Frau Pilz,True,,Wohnung,250 €,,,,Miete,01279,Dresden,Laubegast,Singles aufgepasst! schöne 2-Raumwohnung unterm Dach,"33,66 m²",2,False,b55bf1ac-7688-31d1-90b1-2e28e6b2cd04
55085623,"Gönnsdorf/Pappritz, Dresden",3,[Provisionsfrei*],Herr Mario Batz,False,500 m²,Haus,,272.320 €,,,Kauf,01009,Dresden,Gönnsdorf/Pappritz,Die neue Generation: Passivhäuser von Bien-Zenker,128 m²,5,False,0dae762a-ab5e-3165-b8e5-20f5bd058e37
55085707,"Klotzsche, Dresden",3,[Provisionsfrei*],Herr Mario Batz,False,500 m²,Haus,,262.600 €,,,Kauf,01309,Dresden,Klotzsche,Die neue Generation: Passivhäuser von Bien-Zenker,128 m²,5,False,0dae762a-ab5e-3165-b8e5-20f5bd058e37
55085720,"Löbtau-Süd, Dresden",3,[Provisionsfrei*],Herr Mario Batz,False,370 m²,Haus,,194.990 €,,,Kauf,01189,Dresden,Löbtau-Süd,Käufer für ein wunderschönes Eigenheim in DD-Löbtau gesucht,124 m²,5,False,0dae762a-ab5e-3165-b8e5-20f5bd058e37
55085784,"Talstraße, Cossebaude/Mobschatz/Oberwartha, Dresden",2,[Provisionsfrei*],Herr Mario Batz,False,660 m²,Haus,,179.990 €,51.08026,13.618,Kauf,01156,Dresden,Cossebaude/Mobschatz/Oberwartha,Preisgünstiges Niedrigenergiehaus in Cossebaude,125 m²,5,False,0dae762a-ab5e-3165-b8e5-20f5bd058e37
55374838,"Pieschen-Nord/Trachenberge, Dresden",11,"[Balkon/Terrasse, Einbauküche]",Herr Christoph Käsemodel,True,,Wohnung,,149.000 €,,,Kauf,01129,Dresden,Pieschen-Nord/Trachenberge,Qualität aus zweiter Hand - Maisonette in Dresden-Pieschen,"91,1 m²",3,False,cda08f67-a92e-3dae-997a-9747dbfaac85
55983890,"Malterstraße 59, Löbtau-Süd, Dresden",3,"[Einbauküche, Garten]",Herr Elmar Eckhardt,True,,Wohnung,335 €,,51.03923,13.69197,Miete,01159,Dresden,Löbtau-Süd,WG geeignet - Modernes Wohnen in Gründerzeit-Villa!,52 m²,2,False,55297372-cec3-3623-ae1f-a40bfeca3814
56267123,"Bühlau/Weißer Hirsch, Dresden",2,[Balkon/Terrasse], Haase & Kollegen Immobilenmakler,False,,Wohnung,,199.000 €,,,Kauf,01324,Dresden,Bühlau/Weißer Hirsch,Haase & Kollegen:süße 2-Zimmer-Dachgeschoß-Wohnung im Denkmal mit Blick auf Dresden,55 m²,2,False,58a9153b-da76-3cc9-bda7-289d8b3d7ecf
56591695,"Klosterteichplatz 6, Leubnitz-Neuostra, Dresden",5,"[Balkon/Terrasse, Garten]",Herr Lutz Vehmann,True,,Wohnung,498 €,,51.012,13.76494,Miete,01219,Dresden,Leubnitz-Neuostra,2 Raum Wohnung,70 m²,2,True,6c46ae37-fe45-354e-b6c1-2ea045d2c9cf
56882430,"Schäferstraße 25, Friedrichstadt, Dresden",4,[],Frau Heike Lehmann,True,,Wohnung,250 €,,51.05538,13.71776,Miete,01067,Dresden,Friedrichstadt,STUDENTEN aufgepasst WG geeignete 3 Zimmer - Wohnung in zentraler Lage,"60,56 m²",3,False,f3635b51-8b6a-3bd4-8e76-58a7653963a8
56933039,"Louisenstraße 33, Äußere Neustadt (Antonstadt), Dresden",8,"[Balkon/Terrasse, Einbauküche]",Frau Nicole Blum,True,,Wohnung,330 €,,51.06724,13.75105,Miete,01099,Dresden,Äußere Neustadt (Antonstadt),1 Zi-DG-Wohnung -möbliert- Neustadt /Ideal f Singles + Wochenend-Heimfahrer,20 m²,1,True,9c8765d1-810b-3e35-84fc-cde2bacbaff0
57345505,"Hellerau/Wilschdorf, Dresden",1,[Provisionsfrei*],Herr Mario Batz,False,600 m²,Haus,,199.332 €,,,Kauf,01109,Dresden,Hellerau/Wilschdorf,Bien-Zenker-Aktionshaus in Hellerau,122 m²,4,False,0dae762a-ab5e-3165-b8e5-20f5bd058e37
57422387,"Altenberger Straße 11, Blasewitz, Dresden",6,[Garten],Frau Cornelia Walther,True,,Wohnung,370 €,,51.04232,13.80679,Miete,01277,Dresden,Blasewitz,Gemütliche helle 2RWE!,"57,44 m²",2,False,deec3f7a-e578-39b3-8ece-94d17a8d4ad7
57578579,"Semmelweisstraße  2, Friedrichstadt, Dresden",9,[Balkon/Terrasse],Herr Jens Wustmann,True,,Wohnung,416 €,,51.05131,13.70696,Miete,01159,Dresden,Friedrichstadt,Helle 3 Raum Wohnung mit kleinen Balkon im 2. OG re zu vermieten,"69,86 m²",3,False,4692da41-d1e4-3fd8-8c70-e7ded7b46524
58257738,"Gorbitz-Süd, Dresden",10,"[Balkon/Terrasse, Garten]",Herr Rolf Fritzsche,True,,Wohnung,345 €,,,,Miete,01169,Dresden,Gorbitz-Süd,"Excl. Zwei-Zimmer-Wohnung m. Gartenbenutzung in ruhiger Lage, stilvolle Architektur","56,23 m²",2,True,7cfe0e94-bbac-37ef-9cf7-417ec0b78ddc
58447439,"Schaufussstraße  27, Blasewitz, Dresden",10,[], CENTURION Invest & Projekt- gesellschaft mbH & Co. KG,True,,Wohnung,380 €,,51.03849,13.81119,Miete,01277,Dresden,Blasewitz,Schicke 2 RWE in super Lage!,54 m²,2,False,0f461593-222f-327a-b291-d292ba9d5ec5
58684934,"Holbeinstr. 86, Striesen-West, Dresden",7,"[Balkon/Terrasse, Einbauküche]",Herr Rudolf Hamann,True,,Wohnung,383 €,,51.04779,13.77698,Miete,01309,Dresden,Striesen-West,Großzügiges Appartement mit EBK und Balkon,"47,9 m²",1,False,9d2dad87-4bef-371f-af55-a1cd7d1232fe
59060762,"Wormser Straße 50b, Striesen-West, Dresden",15,"[Balkon/Terrasse, Garten]",Herr Steffen Hallmann,True,,Wohnung,,96.600 €,51.0465,13.78562,Kauf,01309,Dresden,Striesen-West,"**Striesen-eine gute Entscheidung**Etagenwohnung mit Süd-Balkon, Tageslichtbad zum fairen Preis*","61,21 m²",3,False,88fe3eac-769c-367c-a665-c30637a4308e
59359762,"Helmholzstraße 4, Südvorstadt-Ost, Dresden",17,"[Balkon/Terrasse, Einbauküche, Garten]",Herr Frank Meier,True,,Wohnung,,490.000 €,,,Kauf,01069,Dresden,Südvorstadt-Ost,großzügige Dachgeschoßwohnung in der Südvorstadt,"202,43 m²",5,False,bacd69b6-7389-3d24-8ed1-9ba674fafaf3
59845961,"Anton-Graff-Str. 14, Striesen-Süd, Dresden",5,"[Einbauküche, Garten]",Herr Christian  Kallenbrunnen,False,,Wohnung,499 €,,51.04412,13.77181,Miete,01309,Dresden,Striesen-Süd,Stilvolles Wohnen leicht gemacht - nahe dem Fetscherplatz!,"63,88 m²",2,True,5aaa4435-e652-35a0-bdd8-84f79039a013
59966227,"Leipziger Straße  48, Pieschen-Süd, Dresden",15,[Balkon/Terrasse],Frau Daniela Sura,False,,Wohnung,,81.500 €,51.07246,13.7261,Kauf,01127,Dresden,Pieschen-Süd,Eigentumswohnung in Elbnähe ideal für Senioren,"58,64 m²",2,False,0dc37248-1ba1-351c-b76c-fa2fa5bffcf5
60138282,"Leipziger Vorstadt, Dresden",11,"[Balkon/Terrasse, Einbauküche]",Frau Sabine Zille,True,,Wohnung,,220.000 €,,,Kauf,01097,Dresden,Leipziger Vorstadt,Tolle Galeriewohnung mit Balkon und EBK!,110 m²,4,False,06ca4433-b565-3d14-8b8d-c58ae49266da
60854290,"Meußlitzer Straße  53a, Kleinzschachwitz, Dresden",10,[Balkon/Terrasse], Herr André Ihle Frau Ines Löwe,True,,Wohnung,,126.000 €,51.01002,13.84873,Kauf,01259,Dresden,Kleinzschachwitz,ANLAGEIMMOBILIE! 3-ZIMMER-WOHNUNG MIT BALKON!,90 m²,3,False,f565fdaf-446d-31aa-ac7e-3a585aa452e3
60854360,"Meußlitzer Straße  53a, Kleinzschachwitz, Dresden",10,[Balkon/Terrasse], Herr André Ihle Frau Ines Löwe,True,,Wohnung,,149.500 €,51.01002,13.84873,Kauf,01259,Dresden,Kleinzschachwitz,ZU VERKAUFEN! GROßE HELLE WOHNUNG MIT BALKON!,90 m²,3,False,f565fdaf-446d-31aa-ac7e-3a585aa452e3
60890712,"Maxim-Gorki-Str. 78, Pieschen-Nord/Trachenberge, Dresden",10,"[Provisionsfrei*, Balkon/Terrasse, Einbauküche]",Herr Alexander Prill,False,,Wohnung,,129.000 €,51.08992,13.72502,Kauf,01129,Dresden,Pieschen-Nord/Trachenberge,hochwertige 2 ZW in denkmalgeschütztem Objekt,60 m²,2,True,f7448967-38e6-3719-8bc6-b84b276fcb13
61226130,"Straußstr. 1, Bühlau/Weißer Hirsch, Dresden",6,"[Balkon/Terrasse, Einbauküche]",Herr Maik Hauke,True,,Wohnung,348 €,,51.06181,13.8346,Miete,01324,Dresden,Bühlau/Weißer Hirsch,"1,5 - Zimmerwohnung mit EBK und herrschaftlichem Balkon","47,75 m²","1,5",False,f304dfc2-15b3-3a3c-86f1-5a4471c695a5
61564744,"An der Frauenkirche  18, Innere Altstadt, Dresden",10,[Balkon/Terrasse],Frau Gabriele Ahrens,False,,Wohnung,1.390 €,,51.05233,13.74269,Miete,01067,Dresden,Innere Altstadt,Wunderschöne 5-Zi-Whg. am Neumarkt,"128,57 m²",5,False,28d5d17f-e4c1-3f60-ba32-91e8b3a727c3
61619695,"Burgenlandstraße 35, Laubegast, Dresden",7,"[Balkon/Terrasse, Garten]", ImmPrima GmbH Katja Bärisch,False,,Wohnung,680 €,,51.02443,13.83192,Miete,01279,Dresden,Laubegast,sonnige 3-Zimmer-Wohnung mit Balkon und Wintergarten,74 m²,3,False,c6fc9057-4740-3d1e-a735-3cc63e644a0f
61620744,"Bautzner Str. 10, Innere Neustadt, Dresden",5,[],Herr Peter Rößner,False,600 m²,Haus,,1.100.000 €,51.06274,13.75086,Kauf,01099,Dresden,Innere Neustadt,"Wohn-und Geschäftshaus (Denkmal) m. romantischem Garten, komplett vermietet, gute Lage DD Neustadt ",677 m²,20,False,aebdf5df-9315-39b7-8071-57a0b078759f
61802080,"Einsteinstraße 8, Südvorstadt-Ost, Dresden",15,"[Balkon/Terrasse, Einbauküche, Garten]",Herr Maik Hauke,True,,Wohnung,,300.000 €,51.0302,13.73258,Kauf,01069,Dresden,Südvorstadt-Ost,"Exklusive 3-Zi. Gründerzeitwhg. mit Echtholzvertäfelung, Swarovskilüster im herrschaftlichen Charme",104 m²,3,False,f304dfc2-15b3-3a3c-86f1-5a4471c695a5
61973664,"Reißiger Str. 28, Johannstadt-Süd, Dresden",2,"[Balkon/Terrasse, Einbauküche]",Herr Markus Dangl,False,,Wohnung,"464,92 €",,51.04638,13.76968,Miete,01307,Dresden,Johannstadt-Süd,Schöne 2-Zi.-Whg.,"61,99 m²",2,False,db67f256-9116-33b6-a272-6ebff63e94dc
62013745,"Tzschimmerstraße 30, Striesen-Ost, Dresden",8,"[Balkon/Terrasse, Garten]", Herr André Ihle Frau Ines Löwe,True,,Wohnung,430 €,,51.04578,13.79419,Miete,01309,Dresden,Striesen-Ost,***Dachgeschosstraum mit Balkon zum Wohlfühlen im schönen Striesen***,"61,4 m²",2,False,f565fdaf-446d-31aa-ac7e-3a585aa452e3
62503454,"Schäferstraße 42-44, Friedrichstadt, Dresden",4,[Einbauküche],Firma Lenz & Saas Immobilienanlagen GmbH,True,,Wohnung,350 €,,51.05698,13.7138,Miete,01067,Dresden,Friedrichstadt,"Helle 2 Zimmer-Whg. mit EBK in Dresden-Friedrichstadt, nähe Klinikum und Amtsgericht!",55 m²,2,False,c4212226-c262-3835-8b6a-7f2cf9894ba6
62716748,"Hauptstr. 30, Bühlau/Weißer Hirsch, Dresden",14,"[Provisionsfrei*, Balkon/Terrasse]",Frau Nora Taschew,True,,Wohnung,,149.000 €,,,Kauf,01454,Dresden,Bühlau/Weißer Hirsch,Traumhaft sonnige Dachgeschosswohnung mit Blick ins Grüne,72 m²,2,False,99782221-6899-3ba0-ac7a-6a3e3e53a073
62851775,"Leipziger Vorstadt, Dresden",15,"[Balkon/Terrasse, Einbauküche, Garten]",Frau Sabine Socha,True,,Wohnung,,75.000 €,,,Kauf,01097,Dresden,Leipziger Vorstadt,Sonn. 2-RW/gr. Balk./EBK/Blick ins Grüne/san. Gründerzeithaus/Leipz. Vorst.                         ,"55,25 m²",2,False,e1b44548-d76b-39d6-a168-11eedfebe535
62851823,"Löbtau-Süd, Dresden",9,"[Balkon/Terrasse, Einbauküche, Garten]",Frau Sabine Socha,True,,Wohnung,,70.000 €,,,Kauf,01159,Dresden,Löbtau-Süd,Sonn. ruh. kl. 2-R-Sinkle-Wohn. m. großem West-Balkon u. EBK in DD-Löbtau ,"42,13 m²",2,False,e1b44548-d76b-39d6-a168-11eedfebe535
63029178,"Mickten, Dresden",11,[Einbauküche],Herr Frank  Schreiter,True,,Wohnung,350 €,,,,Miete,01139,Dresden,Mickten,Quadratisch - Praktisch - Ruhig,49 m²,2,False,2eeacf09-f598-3a9a-a91d-11b60d67faa8
63082107,"Loschwitz/Wachwitz, Dresden",10,"[Balkon/Terrasse, Garten]",Herr Frank Meier,True,,Wohnung,,549.000 €,,,Kauf,01324,Dresden,Loschwitz/Wachwitz,Blick über Dresden aus schicker Etagenwohnung,"162,75 m²",5,False,bacd69b6-7389-3d24-8ed1-9ba674fafaf3
63096620,"Äußere Neustadt (Antonstadt), Dresden",9,[],Herr Christoph Käsemodel,True,,Wohnung,,99.360 €,,,Kauf,01099,Dresden,Äußere Neustadt (Antonstadt),Unter 2000 EUR/m² - 2-Zimmer-ETW in der Dresdner-Neustadt zum Erstbezug,"50,55 m²",2,False,cda08f67-a92e-3dae-997a-9747dbfaac85
63268703,"Kleinzschachwitz, Dresden",3,"[Balkon/Terrasse, Einbauküche]",Frau Magda Uhlmann,True,,Wohnung,,86.700 €,,,Kauf,01259,Dresden,Kleinzschachwitz,++ruhige grüne Wohnanlage bietet geräumige helle 2-RW mit Tiefgarage++,58 m²,2,False,ed2f5f9f-97ea-3e0f-89c4-2ee101b713ca
63421490,"Cotta, Dresden",7,"[Balkon/Terrasse, Garten]",Herr Mathias Kunze,False,,Wohnung,318 €,,,,Miete,01157,Dresden,Cotta,*Schöne helle und freundliche Dachgeschoßwohnung   ist frei*,53 m²,2,False,978e44b0-0a6a-3bc3-8608-dadad8f3b166
63508561,"Dorfstr.  16, Niedersedlitz, Dresden",11,[Balkon/Terrasse],Frau Renate Boedecker,False,,Wohnung,1.241 €,,50.99848,13.82025,Miete,01257,Dresden,Niedersedlitz,Neubau-Reihenhäuser im Dreiseitenhof in DD-Niedersedlitz,146 m²,5,False,bf9bc17b-573e-3988-b2ae-e4a239abd83c
63609496,"Fritz-Reuter-Straße 61, Pieschen-Nord/Trachenberge, Dresden",8,[Balkon/Terrasse],Frau Sabine Arndt,False,,Wohnung,370 €,,51.07507,13.73465,Miete,01097,Dresden,Pieschen-Nord/Trachenberge,2 Zimmerwohnung mit Balkon,"46,38 m²",2,False,1178267a-f680-3976-bf75-ba20577c43ec
63770020,"Krainer Straße  17, Laubegast, Dresden",6,[], Herr André Ihle Frau Ines Löwe,True,,Wohnung,,82.000 €,51.01945,13.83024,Kauf,01279,Dresden,Laubegast,WOHNEN IM GRÜNEN! SCHÖNE 2-ZIMMER-WOHNUNG IN DER VILLACHER SIEDLUNG ZU VERKAUFEN,"63,12 m²",2,False,f565fdaf-446d-31aa-ac7e-3a585aa452e3
63809311,"Leipziger Vorstadt, Dresden",30,[],Frau Magda Uhlmann,True,,Wohnung,,81.500 €,,,Kauf,01097,Dresden,Leipziger Vorstadt,Altbau-Charme im beliebten Hechtviertel - vermietete gepflegte 2-Raum-Wohnung,"52,57 m²",2,False,ed2f5f9f-97ea-3e0f-89c4-2ee101b713ca
63820059,"Käthe-Kollwitz-Ufer 73, Johannstadt-Nord, Dresden",4,"[Balkon/Terrasse, Einbauküche]", CENTURION Invest & Projekt- gesellschaft mbH & Co. KG,True,,Wohnung,265 €,,51.06005,13.78342,Miete,01307,Dresden,Johannstadt-Nord,1 RWE! EBK! Balkon!,"28,43 m²",1,False,0f461593-222f-327a-b291-d292ba9d5ec5
63825702,"Rhönweg 3, Naußlitz, Dresden",2,[],Herr Ullrich Vogel,False,,Wohnung,369 €,,51.03829,13.68849,Miete,01159,Dresden,Naußlitz,Schicke Erdgeschosswohnung * 2 Zimmer * Ruhige Lage,"56,68 m²",2,False,2a86b3e8-3ada-310c-9a56-e2bf5ffa1f28
63826539,"Lange Str. 45, Naußlitz, Dresden",6,[],Herr Ullrich Vogel,True,,Wohnung,349 €,,51.03998,13.68877,Miete,01159,Dresden,Naußlitz,"Sonnige, geräumige 2-Zimmer-Dachgeschosswohnung für junge Leute","53,63 m²",2,False,2a86b3e8-3ada-310c-9a56-e2bf5ffa1f28
63830773,"Saalhausener Str. 27b, Naußlitz, Dresden",3,[Balkon/Terrasse],Herr Ullrich Vogel,True,,Wohnung,382 €,,51.03981,13.68729,Miete,01159,Dresden,Naußlitz,Geräumige 2-Zimmerwohnung in Dresden-Naußlitz,"56,17 m²",2,False,2a86b3e8-3ada-310c-9a56-e2bf5ffa1f28
63870760,"Trachenbergerstraße 16, Pieschen-Nord/Trachenberge, Dresden",8,[Einbauküche],Herr Edgar Korb,True,,Wohnung,336 €,,51.08392,13.72756,Miete,01129,Dresden,Pieschen-Nord/Trachenberge,Ideal zur Uni und Neustadt,48 m²,2,True,288c5ea2-f69b-3f65-ab75-f66744bca044
64160218,"Altonaer Straße  21, Friedrichstadt, Dresden",10,[Provisionsfrei*],Herr René Pütter,True,260 m²,Haus,,330.988 €,51.04933,13.70687,Kauf,01159,Dresden,Friedrichstadt, - Friedrichstädter Gartenhäuser- Kleines Idylisches Baugebiet -,156 m²,6,False,6ee69520-bafa-3e03-b505-cce920b129e2
64287144,"Fetscherstr. 23, Johannstadt-Süd, Dresden",2,[Balkon/Terrasse],Herr Markus Dangl,False,,Wohnung,"400,98 €",,51.0454,13.77015,Miete,01307,Dresden,Johannstadt-Süd,Schöne zentrale 2-Zi.-Whg,"52,76 m²",2,False,db67f256-9116-33b6-a272-6ebff63e94dc
64642231,"Hochschulstraße 47, Südvorstadt-Ost, Dresden",12,"[Balkon/Terrasse, Garten]",Herr Bernd Riedel,True,,Wohnung,,146.500 €,51.03107,13.73184,Kauf,01069,Dresden,Südvorstadt-Ost,Dachterrassenwohnung an der TU Dresden,"75,12 m²",2,False,75b72d90-d3ef-350a-bde4-8d8c8b3fc4dd
64684555,"Saalhausener Str. 27, Naußlitz, Dresden",4,[Balkon/Terrasse],Herr Ullrich Vogel,True,,Wohnung,372 €,,51.04001,13.68744,Miete,01237,Dresden,Naußlitz,Frisch sanierte 2-Zimmer-Wohnung wartet auf neue Mieter!,"57,14 m²",2,False,2a86b3e8-3ada-310c-9a56-e2bf5ffa1f28
64695457,"Rhönweg 12, Naußlitz, Dresden",3,[Balkon/Terrasse],Herr Ullrich Vogel,True,,Wohnung,365 €,,51.03851,13.68764,Miete,01159,Dresden,Naußlitz,"Helle, freundliche 2-Zimmer-Wohnung in Dresden-Naußlitz","56,14 m²",2,False,2a86b3e8-3ada-310c-9a56-e2bf5ffa1f28
64854924,"Eifelweg 1, Naußlitz, Dresden",6,[],Herr Ullrich Vogel,False,,Wohnung,373 €,,51.03921,13.68855,Miete,01159,Dresden,Naußlitz,Einziehen und Wohlfühlen in 2-Zimmer-Erdgeschosswohnung!!,"57,33 m²",2,False,2a86b3e8-3ada-310c-9a56-e2bf5ffa1f28
64887213,"Löscherstraße 35, Striesen-West, Dresden",16,"[Balkon/Terrasse, Garten]",Herr Steffen Hallmann,True,,Wohnung,,111.600 €,51.048,13.78074,Kauf,01309,Dresden,Striesen-West,"**Perfekt für spätere Eigennutzer! Altersgerechte Wohnung im Neubau mit Balkone, TG, Lift...!","70,19 m²",3,False,88fe3eac-769c-367c-a665-c30637a4308e
64936149,"Wachsbleichstraße 65, Friedrichstadt, Dresden",6,[Einbauküche],Herr Andreas Schütte,False,,Wohnung,,70.000 €,51.05855,13.7119,Kauf,01069,Dresden,Friedrichstadt,Neuwertige Wohnung in bester Lage mit Tiefgaragenplatz und Blick auf die Elbe,48 m²,2,False,4128a43f-4c34-31a1-a27a-a0d0801f06a2
64973626,"Rhönweg 11, Naußlitz, Dresden",3,[Balkon/Terrasse],Herr Ullrich Vogel,True,,Wohnung,374 €,,51.03803,13.68779,Miete,01159,Dresden,Naußlitz,"Gemütliche Wohnung in ruhiger, grüner Lage","57,49 m²",2,False,2a86b3e8-3ada-310c-9a56-e2bf5ffa1f28
64974532,"Lange Str. 47, Naußlitz, Dresden",2,[Balkon/Terrasse],Herr Ullrich Vogel,False,,Wohnung,361 €,,51.03988,13.6888,Miete,01159,Dresden,Naußlitz,Frisch sanierte 2-Zimmer-Wohnung in Dresden-Naußlitz,"55,43 m²",2,False,2a86b3e8-3ada-310c-9a56-e2bf5ffa1f28
65022345,"Radeberger Strasse 20, Weißig, Dresden",15,[], Vermietung direkt durch den Eigentümer,True,,Wohnung,330 €,,51.06583,13.88691,Miete,01328,Dresden,Weißig,"Schnipp, Schnapp, Schnäppchen: Pfiffige 2 Zi. DG Maisonette-Whg. zu vermieten",63 m²,2,True,6174ed9e-51c9-30b9-9582-477653b48729
65410563,"Blasewitz, Dresden",12,"[Balkon/Terrasse, Garten]", Ralf Möschwitzer,True,,Wohnung,315 €,,,,Miete,01309,Dresden,Blasewitz,2-Zimmer-Wohnung mit Gartennutzung!,"54,2 m²",2,False,831cb81c-40ee-3606-bcb5-934f37ec9e1d
65449592,"Pillnitzer Landstraße 197, Hosterwitz/Pillnitz, Dresden",2,"[Balkon/Terrasse, Einbauküche]",Frau Christina Möllendorf-Siebenhaar,True,,Wohnung,266 €,,51.0314,13.84265,Miete,01326,Dresden,Hosterwitz/Pillnitz,Süße Einraumwohnung in Niederpoyritz,38 m²,1,False,cb5fb182-50aa-38c6-9524-89dcabd63440
65476940,"Weixdorf, Dresden",9,[],Frau Sabine Socha,False,1.350 m²,Haus,,395.000 €,,,Kauf,01108,Dresden,Weixdorf,"Großz. EFH in idyll. Lage m. Terr., Pool, Wintergarten/Kamin, Sauna in DD-Weixdorf                 ",230 m²,8,False,e1b44548-d76b-39d6-a168-11eedfebe535
65562934,"Böhmische Str. 16, Äußere Neustadt (Antonstadt), Dresden",8,[Einbauküche],Herr Peter Rößner,True,,Wohnung,,64.500 €,51.06495,13.75243,Kauf,01099,Dresden,Äußere Neustadt (Antonstadt),"Für Kapitalanleger!  2-R-Whg. Dresdner Äuß. Neustadt, gut vermietet und immer gut vermietbar!",43 m²,2,False,aebdf5df-9315-39b7-8071-57a0b078759f
65622612,"Klotzsche, Dresden",3,[Balkon/Terrasse],Herr Mathias Kunze,True,,Wohnung,,180.000 €,,,Kauf,01109,Dresden,Klotzsche,Maisonette 3 Zimmer Wohnung in Dresden Klotzsche,"94,65 m²",3,False,978e44b0-0a6a-3bc3-8608-dadad8f3b166
65726613,"Äußere Neustadt (Antonstadt), Dresden",6,"[Balkon/Terrasse, Garten]",Frau Ines Griese,True,,Wohnung,"398,82 €",,,,Miete,01099,Dresden,Äußere Neustadt (Antonstadt),Schicke 2-Zimmer-Wohnung mit Wohnküche und Balkon sucht Nachmieter,"58,65 m²",2,False,788834da-9717-30d8-9121-1e732b4ca677
65735781,"Loschwitz/Wachwitz, Dresden",16,"[Balkon/Terrasse, Einbauküche, Garten]",Frau Karin  Schmidt,False,,Wohnung,1.800 €,,,,Miete,01326,Dresden,Loschwitz/Wachwitz,"ruhige, sehr schöne 5-Zimmer Wohnung in Dresden - Loschwitz",174 m²,5,False,806a92d2-9a86-3d5e-9634-ab61020e0822
65826129,"Leipziger Str. 143, Mickten, Dresden",3,[Balkon/Terrasse],Frau Susann Weglowski,False,,Wohnung,345 €,,51.08174,13.71269,Miete,01139,Dresden,Mickten,"Geräumige, gut geschnittene 2-Zimmer-Wohnung in Dresden-Mickten","58,86 m²",2,False,3aa409c0-0bd8-3a42-bbf2-b28706e10df3
66154892,"Striesen-Süd, Dresden",9,"[Einbauküche, Garten]",Frau Ines Griese,True,,Wohnung,605 €,,,,Miete,01309,Dresden,Striesen-Süd,"Großzügige 2,5-Zimmer-Wohnung mit Einbauküche unweit des Großen Gartens gesucht?","84,12 m²",2,False,788834da-9717-30d8-9121-1e732b4ca677
66157196,"Lohmener Straße 34, Hosterwitz/Pillnitz, Dresden",2,[Garten], Cornelia Möbius-Tyralla,False,,Wohnung,"282,65 €",,51.00008,13.89986,Miete,01326,Dresden,Hosterwitz/Pillnitz,2-Raumwohnung idyllische Lage mit Balkon,"49,5 m²",2,False,b44ff2a1-4d44-3ee2-a089-db6e6114703f
66214358,"Geinitzstr.  1, Südvorstadt-Ost, Dresden",3,[],Frau Heike Lehmann,True,,Wohnung,460 €,,51.03245,13.747,Miete,01217,Dresden,Südvorstadt-Ost,Familiengerechter Raumschnitt 3- Zimmerwohnung in ruhiger Citylage,"69,1 m²",3,False,f3635b51-8b6a-3bd4-8e76-58a7653963a8
66348925,"Bergmannstraße 44, Striesen-West, Dresden",11,[Balkon/Terrasse], ImmPrima GmbH Katja Bärisch,False,,Wohnung,972 €,,51.04437,13.78881,Miete,01309,Dresden,Striesen-West,individuelle und helle 4 Zimmer-Wohnung über zwei Etagen mit Balkon,115 m²,4,False,c6fc9057-4740-3d1e-a735-3cc63e644a0f
66574097,"Guts-Muths-Str. 17, Mickten, Dresden",7,[],Frau Susann Weglowski,False,,Wohnung,366 €,,51.08512,13.71467,Miete,01139,Dresden,Mickten,Schicke 2-Zimmer-Wohnung in Dresden-Trachau,"56,23 m²",2,False,3aa409c0-0bd8-3a42-bbf2-b28706e10df3
66612019,"Hoyerswerdaer Str. 20, Innere Neustadt, Dresden",11,"[Balkon/Terrasse, Einbauküche, Garten]",Frau Renate Boedecker,True,,Wohnung,463 €,,51.061,13.75259,Miete,01099,Dresden,Innere Neustadt,Appartment für ultra starke Singles,62 m²,2,False,bf9bc17b-573e-3988-b2ae-e4a239abd83c
66668649,"Scheunenhofstr. 1a, Äußere Neustadt (Antonstadt), Dresden",11,[Balkon/Terrasse],Frau Nora Taschew,False,,Wohnung,,105.000 €,51.0691,13.74817,Kauf,01099,Dresden,Äußere Neustadt (Antonstadt),Für Studententeltern:Praktische 2-Zi.Wohnung in zentraler Lage,50 m²,2,False,99782221-6899-3ba0-ac7a-6a3e3e53a073
66686117,"Lehnertstr. 3, Bühlau/Weißer Hirsch, Dresden",25,"[Balkon/Terrasse, Garten]",Frau Nora Taschew,True,,Wohnung,1.350 €,,51.06274,13.81749,Miete,01324,Dresden,Bühlau/Weißer Hirsch,"Bestlage am Weißen Hirsch, ruhiges und schönes Wohnen",140 m²,4,False,99782221-6899-3ba0-ac7a-6a3e3e53a073
66921698,"Weinbergstraße, Cossebaude/Mobschatz/Oberwartha, Dresden",1,[Provisionsfrei*],Herr Mario Batz,False,695 m²,Haus,,280.331 €,51.08378,13.61842,Kauf,01156,Dresden,Cossebaude/Mobschatz/Oberwartha,Hier kann ihr Traumhaus stehen!,"124,17 m²",5,False,0dae762a-ab5e-3165-b8e5-20f5bd058e37
66921731,"Tharandter Straße 1, Hellerau/Wilschdorf, Dresden",1,[Provisionsfrei*],Herr Mario Batz,False,1.500 m²,Haus,,180.331 €,,,Kauf,01109,Dresden,Hellerau/Wilschdorf,Hier kann ihr Traumhaus stehen!,"124,17 m²",5,False,0dae762a-ab5e-3165-b8e5-20f5bd058e37
66921743,"Naußlitz, Dresden",1,[Provisionsfrei*],Herr Mario Batz,False,1.300 m²,Haus,,226.331 €,,,Kauf,01159,Dresden,Naußlitz,Hier kann ihr Traumhaus stehen!,"124,17 m²",5,False,0dae762a-ab5e-3165-b8e5-20f5bd058e37
66977744,"Meißner Landstr. 139c, Briesnitz, Dresden",9,[Balkon/Terrasse],Frau Susann Weglowski,True,,Wohnung,385 €,,51.07958,13.65912,Miete,01157,Dresden,Briesnitz,"Helle, freundliche 2-Zimmerwohnung in Dresden-Stetzsch","61,03 m²",2,False,3aa409c0-0bd8-3a42-bbf2-b28706e10df3
66992378,"Trachau, Dresden",5,"[Balkon/Terrasse, Garten]", Gerald  Mager,True,,Wohnung,,198.000 €,,,Kauf,01129,Dresden,Trachau,4 Raumwohnung im EG mit Garten zur Kapitalanlage!!,"93,18 m²",4,False,bb6db633-7460-3b06-859f-787655a5b215
67048963,"Löbtau-Süd, Dresden",7,[Balkon/Terrasse],Herr Wolfgang Nehm,True,,Wohnung,,65.000 €,,,Kauf,01159,Dresden,Löbtau-Süd,2-Zimmer-ETW in Dresden Löbtau für Eigennutzer,"54,67 m²",2,False,cb89b54c-a4b9-3c1b-b0e2-a1d928d3b27e
67099074,"Pieschen-Nord/Trachenberge, Dresden",15,"[Balkon/Terrasse, Garten]",Frau Anke Beinhoff,True,,Wohnung,,175.000 €,,,Kauf,01129,Dresden,Pieschen-Nord/Trachenberge,Eigentumswohnung im denkmalgeschützten Jugendstilhaus mit attraktiver Parkanlage,70 m²,3,False,019405f3-5948-3bd9-bd01-b1990006f621
67163111,"Wüllnerstr. 39, Mickten, Dresden",3,[],Frau Susann Weglowski,False,,Wohnung,350 €,,51.08224,13.71221,Miete,01139,Dresden,Mickten,"Gemütliche, kleine 3-Zimmerwohnung in Dresden-Mickten","58,78 m²",3,False,3aa409c0-0bd8-3a42-bbf2-b28706e10df3
67242435,"Grüne Straße 8, Wilsdruffer Vorstadt/Seevorstadt-West, Dresden",4,[Balkon/Terrasse],Frau Barbara Uhlig,False,,Wohnung,453 €,,51.05378,13.72773,Miete,01067,Dresden,Wilsdruffer Vorstadt/Seevorstadt-West,01067 DD /Grüne Straße 8/2-R-W/1.OG/ca. 65m² m. Südloggia,65 m²,2,False,6e5f415c-14fd-3268-8e2f-121d9613de7e
67548584,"Cotta, Dresden",3,[Balkon/Terrasse],Frau Sabine Socha,False,,Wohnung,,85.000 €,,,Kauf,01157,Dresden,Cotta,Sonnige ruhige kl. 3-R-NB-Whg. mit Balk. in Dresden-Cotta,"66,2 m²",3,False,e1b44548-d76b-39d6-a168-11eedfebe535
67582952,"Striesen-Süd, Dresden",2,[Balkon/Terrasse],Herr Mathias Kunze,True,,Wohnung,,120.000 €,,,Kauf,01277,Dresden,Striesen-Süd,"3 Zimmer Eigentumswohnung mit Lift, Tiefgarage und großen Balkon","70,25 m²",3,False,978e44b0-0a6a-3bc3-8608-dadad8f3b166
68096226,"Johannstadt-Nord, Dresden",15,[],Herr Jean Winkler,True,,Wohnung,420 €,,,,Miete,01307,Dresden,Johannstadt-Nord,helle 2 Zi. - Wohnung... in unmittelbarer Nähe zu den Elbwiesen,60 m²,2,False,e90e15fc-40f0-3f5a-8f2b-2fed53d342cc
68165600,"Zschierener Straße 8a, Kleinzschachwitz, Dresden",10,[],Herr Frank Meier,False,1.060 m²,Haus,,690.000 €,51.00668,13.8496,Kauf,01259,Dresden,Kleinzschachwitz,außergewöhnliche Villa in Kleinzschachwitz,245 m²,12,False,bacd69b6-7389-3d24-8ed1-9ba674fafaf3
68226607,"Tolkewitzer Straße 75, Blasewitz, Dresden",7,"[Balkon/Terrasse, Garten]",Herr Frank Meier,True,,Wohnung,,205.000 €,,,Kauf,01309,Dresden,Blasewitz,schicke Gartengeschoßwohnung an der Elbe,87 m²,3,False,bacd69b6-7389-3d24-8ed1-9ba674fafaf3
68305136,"Münchner Platz 8, Südvorstadt-West, Dresden",7,"[Balkon/Terrasse, Garten]",Herr Frank Meier,True,,Wohnung,,150.000 €,51.0306,13.72125,Kauf,01187,Dresden,Südvorstadt-West,schicke 2-R-Whg. in der Südvorstadt,"68,5 m²",2,False,bacd69b6-7389-3d24-8ed1-9ba674fafaf3
68376115,"Tieckstraße 5, Innere Neustadt, Dresden",24,"[Provisionsfrei*, Balkon/Terrasse]",Herr Georg Hartmann,True,,Wohnung,,560.000 €,51.06133,13.75126,Kauf,01099,Dresden,Innere Neustadt,Maisonette mit Blick über die Dächer der Stadt - bezugsfertig,163 m²,5,False,05c36c16-8c22-3285-bfa1-85e019fa3809
68383644,"Wormer Str.  60, Striesen-West, Dresden",1,"[Balkon/Terrasse, Garten]", Karin Schöne,False,,Wohnung,659 €,,51.04609,13.78701,Miete,01309,Dresden,Striesen-West,Optimale 4-Raum-Wohnung,"101,4 m²",4,False,2948dbe5-457a-3336-83fe-f603f1b8e670
68416627,"Lockwitz, Dresden",8,[Provisionsfrei*],Frau Anne Kaiser,True,600 m²,Haus,,229.900 €,,,Kauf,01068,Dresden,Lockwitz,"Grundstück in Dresden Nickern - auch Bungalow möglich, E70 Haus",138 m²,4,False,db8bbb18-cfa0-3dbd-90d1-38b4b3f12766
68430759,"Lange Str. 49, Naußlitz, Dresden",4,[Balkon/Terrasse],Herr Ullrich Vogel,True,,Wohnung,285 €,,51.03964,13.68886,Miete,01159,Dresden,Naußlitz,"Helle, geräumige 1-Zimmer-Wohnung in Dresden-Naußlitz","40,58 m²",1,False,2a86b3e8-3ada-310c-9a56-e2bf5ffa1f28
68454625,"Pieschen-Süd, Dresden",15,"[Balkon/Terrasse, Einbauküche]",Frau Sabine Socha,True,,Wohnung,,70.000 €,,,Kauf,01127,Dresden,Pieschen-Süd,"Elbnahe ruhige 2-RW mit Südbalkon, EBK und Parkett in DD-Pieschen","45,72 m²",2,False,e1b44548-d76b-39d6-a168-11eedfebe535
68492941,"Freiligrathstr. 9, Cotta, Dresden",2,[],Frau Petra Friedrich,True,,Wohnung,300 €,,51.06041,13.68043,Miete,01157,Dresden,Cotta,Süße kleine 2-Zimmer Südseite unterm Dach in Dresden Cotta,"45,14 m²",2,False,99253c7a-9180-3993-8040-cb39e1ab7ee8
68494828,"Laubegast, Dresden",3,[],Herr Mario Uhlmann,True,,Wohnung,,50.000 €,,,Kauf,01279,Dresden,Laubegast,***SINGLE-WOHNUNG IN BELIEBTER WOHNLAGE VON DRESDEN-LAUBEGAST***,32 m²,2,False,87622b0c-510f-3ce4-a6a2-9dbcf03668c3
68592302,"Wilhelm-Weitling-Straße 4, Kleinzschachwitz, Dresden",17,"[Balkon/Terrasse, Einbauküche, Garten]",Herr Frank Meier,True,,Wohnung,,450.000 €,51.00821,13.86049,Kauf,01259,Dresden,Kleinzschachwitz,schicke 5-R-Whg in Kleinzschachwitz,"142,08 m²",5,False,bacd69b6-7389-3d24-8ed1-9ba674fafaf3
68601781,"Würzburger Str. 43a, Plauen, Dresden",13,"[Balkon/Terrasse, Garten]",Frau Nora Taschew,True,,Wohnung,,111.000 €,51.03202,13.71232,Kauf,01187,Dresden,Plauen,"5 % Rendige für ruhige, sonnige 2-Zimmer-Whg. in DD-Plauen in Uninähe",60 m²,2,False,99782221-6899-3ba0-ac7a-6a3e3e53a073
68617303,"Leuben, Dresden",6,"[Balkon/Terrasse, Einbauküche]",Frau Kremer,False,,Wohnung,,40.000 €,,,Kauf,01731,Dresden,Leuben,"1-Raum-WE im EG mit Wannenbad, Balkon und TG H 4/1","26,43 m²",1,False,e51da52b-ca01-3570-b84f-737f61cd44cf
68717699,"Südvorstadt-West, Dresden",7,[Balkon/Terrasse],Frau Anke Beinhoff,True,,Wohnung,,89.000 €,,,Kauf,01069,Dresden,Südvorstadt-West,Altstadt II - Zwischen Innenstadt und Uni im Schweizer Viertel,"50,15 m²",2,False,019405f3-5948-3bd9-bd01-b1990006f621
68818961,"Roquettestraße 17, Cotta, Dresden",12,[Balkon/Terrasse],Frau Daniela Sura,True,,Wohnung,,91.700 €,51.05805,13.67913,Kauf,01157,Dresden,Cotta,Schöne 2 RWE zur Eigennutzung oder Kapitalanlage,56 m²,2,False,0dc37248-1ba1-351c-b76c-fa2fa5bffcf5
69038801,"Wilhelm-Weitling-Straße 4, Kleinzschachwitz, Dresden",15,"[Balkon/Terrasse, Garten]",Herr Frank Meier,True,,Wohnung,,495.000 €,51.00821,13.86049,Kauf,01259,Dresden,Kleinzschachwitz,schicke 5-R-Whg im Dachgeschoss,"165,32 m²",4,False,bacd69b6-7389-3d24-8ed1-9ba674fafaf3
69479975,"Trachau, Dresden",4,[],Herr Olaf Leuschner,True,,Wohnung,,96.000 €,,,Kauf,01129,Dresden,Trachau,3 – Raumwohnung mit Balkon Gut saniert mitten in Dresden-Trachenberge,64 m²,3,False,059e72e7-eaa8-3a41-900e-58566f8cbde4
69479984,"Pieschen-Süd, Dresden",6,[],Herr Olaf Leuschner,True,,Wohnung,,82.000 €,,,Kauf,01127,Dresden,Pieschen-Süd,Mansardenwohnung mit Balkon!,48 m²,2,False,059e72e7-eaa8-3a41-900e-58566f8cbde4
69479986,"Pieschen-Süd, Dresden",4,[],Herr Olaf Leuschner,True,,Wohnung,,65.000 €,,,Kauf,01127,Dresden,Pieschen-Süd,Kleine Mansardenwohnung mit Balkon!,37 m²,2,False,059e72e7-eaa8-3a41-900e-58566f8cbde4
69536987,"Weixdorf, Dresden",14,[],Frau Sabine Socha,False,2.200 m²,Haus,,995.000 €,,,Kauf,01108,Dresden,Weixdorf,Großz. EFH in idyll. Lage + Gewerbe + Vermietung im Paket in DD-Weixdorf                  ,500 m²,8,False,e1b44548-d76b-39d6-a168-11eedfebe535
69566137,"Helfenberger Straße 4, Blasewitz, Dresden",23,"[Balkon/Terrasse, Einbauküche, Garten]",Herr Steffen Hallmann,True,,Wohnung,,289.400 €,51.04542,13.81479,Kauf,01277,Dresden,Blasewitz,"*Rarität in Blasewitz! Terrassenwohnung m.Garten, EBK, Laminat und Topp-Aussichten für Eigennutzer!","115,38 m²",3,False,88fe3eac-769c-367c-a665-c30637a4308e
69607372,"Konkordienstr. 39, Pieschen-Süd, Dresden",2,[Provisionsfrei*], Irmela Beck,True,,Wohnung,,76.500 €,51.07576,13.72501,Kauf,01127,Dresden,Pieschen-Süd,PROVISIONSFREI - Wohnen unterm Dach - Gemütliche 2-Zimmer-Wohnung in Pieschen,"60,52 m²",2,False,6728348a-c211-376a-982f-eca46c314d96
69760129,"Frühlingstr. 11, Äußere Neustadt (Antonstadt), Dresden",6,[Balkon/Terrasse],Frau Petra Friedrich,True,,Wohnung,,99.000 €,51.06949,13.76057,Kauf,01099,Dresden,Äußere Neustadt (Antonstadt),2 Zimmer mit Westbalkon und Aufzug in der Dresdner Neustadt,62 m²,2,False,99253c7a-9180-3993-8040-cb39e1ab7ee8
69760748,"Frühlingstr. 11, Äußere Neustadt (Antonstadt), Dresden",6,[],Frau Petra Friedrich,True,,Wohnung,,63.000 €,51.06949,13.76057,Kauf,01099,Dresden,Äußere Neustadt (Antonstadt),1 Zimmer Singlewohnung mit Aufzug in der Dresdner Neustadt,"42,21 m²",1,False,99253c7a-9180-3993-8040-cb39e1ab7ee8
69858595,"Kleinzschachwitz, Dresden",21,[Balkon/Terrasse],Frau Magda Uhlmann,True,,Wohnung,,123.000 €,,,Kauf,01259,Dresden,Kleinzschachwitz,"++2,5 -Zi.-Dachgeschoss-Whg. mit Balkon & TG in gepflegter idyllischer Wohnanlage ++",63 m²,"2,5",False,ed2f5f9f-97ea-3e0f-89c4-2ee101b713ca
70032863,"Neubertstr.  23a, Johannstadt-Nord, Dresden",7,[Einbauküche],Herr Torsten Schulz,True,,Wohnung,440 €,,51.05927,13.77402,Miete,01307,Dresden,Johannstadt-Nord,"schöne, helle 2-Raum Wohnung mit Blick auf den Elbhang",55 m²,2,False,ef66feb0-022e-3525-bca5-536bf85ae447
70116583,"Dobritzer Straße 11, Seidnitz/Dobritz, Dresden",13,[Garten], Herr André Ihle Frau Ines Löwe,True,,Wohnung,,82.000 €,51.02352,13.80492,Kauf,01237,Dresden,Seidnitz/Dobritz,ANLEGER AUFGEPASST!! SCHÖNE GROßE HELLE WOHNUNG IN DOBRITZ ZU VERKAUFEN!,"72,01 m²",3,False,f565fdaf-446d-31aa-ac7e-3a585aa452e3
70130726,"An der Dreikönigskirche  7, Innere Neustadt, Dresden",7,[Einbauküche],Herr Torsten Schulz,True,,Wohnung,420 €,,51.06095,13.74237,Miete,01097,Dresden,Innere Neustadt,helle 2-Raum Wohnung in Bestlage der Dresdner Neustadt,52 m²,2,False,ef66feb0-022e-3525-bca5-536bf85ae447
70132676,"Zwickauer Str.  146, Plauen, Dresden",5,"[Einbauküche, Garten]",Herr Peter Rößner,True,,Wohnung,255 €,,51.03112,13.70549,Miete,01187,Dresden,Plauen,"Top-Single-Whg. mit EBK in UNI-Nähe! San. Altbau, in stilvoller Wohnlage DD Plauen","28,3 m²",1,False,aebdf5df-9315-39b7-8071-57a0b078759f
70223158,"Großzschachwitz, Dresden",15,[],Herr André  Findeisen,True,2.185 m²,Haus,,585.000 €,,,Kauf,01259,Dresden,Großzschachwitz,01259 Dresden...großzügiges Wohnen mit Studio im Dachgeschoss ....Haus inkl. Grundstück,235 m²,6,False,aa044318-09c9-39dd-908c-00e67e16ada1
70231652,"Hauptstraße 7e, Weißig, Dresden",12,[],Frau Margit Trenkler,True,,Wohnung,230 €,,51.05956,13.88507,Miete,01328,Dresden,Weißig,Helle und freundliche 1 Raum Wohnung in DD-Weißig! Provisionsfrei!,"36,3 m²",1,True,3058f83c-2bf7-3d9c-a47e-db8f9c08cdde
70296321,"Würzburger Straße 69, Plauen, Dresden",8,[Einbauküche],Frau Henrike Schoper,True,,Wohnung,345 €,,51.02992,13.71709,Miete,01187,Dresden,Plauen,"Apartment in TU-Nähe – exklusives, helles Einzimmer-Apartment mit Kochzeile in Jugendstilvilla",45 m²,1,True,efffe572-0a04-327d-bcac-c6138dbfbca4
70460588,"Rietzstraße  21, Mickten, Dresden",2,[Balkon/Terrasse], Uwe Schneider,True,,Wohnung,750 €,,51.0829,13.71267,Miete,01139,Dresden,Mickten,Großzügige 4-Raum-Wohnung ,"98,03 m²",4,False,99385e83-69e3-38a9-b53c-7a5b15a9c1b7
70795799,"Kaditz, Dresden",11,"[Balkon/Terrasse, Garten]",Frau Franziska Timme (BT),True,,Wohnung,,255.360 €,,,Kauf,01139,Dresden,Kaditz,Passivhaus - Mit staatlicher Förderung bares Geld beim Kauf Ihrer Wohnung sparen!,"112,01 m²",3,False,2b937804-c4f1-35ed-9f0a-1ee384d17e53
71007333,"Münchner Straße 36, Plauen, Dresden",15,"[Balkon/Terrasse, Einbauküche]",Herr Udo Weber,True,,Wohnung,800 €,,51.02948,13.71936,Miete,01187,Dresden,Plauen,möblierte 3-Raumwohnung in Top Lage,82 m²,3,True,ebf7e04b-7e7c-3192-aafe-b959446c2598
71118450,"Wachwitzer Weinberg 15, Loschwitz/Wachwitz, Dresden",33,"[Balkon/Terrasse, Garten]",Frau Sylke Hoch,True,,Wohnung,1.499 €,,51.04544,13.82747,Miete,01326,Dresden,Loschwitz/Wachwitz,"Traumhaftes Wohn-Unikat ""Wo einst die Wettiner lebten"" auch Galerie, Atelier möglich(mit Kaufoption)","183,91 m²",3,False,47c667c8-f0fa-3733-a907-9cf053b451c4
71193911,"Niederhäslicher Weg 2a, Coschütz/Gittersee, Dresden",7,[Balkon/Terrasse],Frau Petra Friedrich,True,,Wohnung,340 €,,51.0165,13.70138,Miete,01189,Dresden,Coschütz/Gittersee,Schöne 2 Zimmer unterm Dach mit Balkon in Dresden Coschütz,"52,11 m²",2,False,99253c7a-9180-3993-8040-cb39e1ab7ee8
71214066,"Innere Neustadt, Dresden",22,[Garten], Stefan Stöhr,False,,Wohnung,,90.000 €,,,Kauf,01099,Dresden,Innere Neustadt,Ab in die eigenen 4 Neustadt-Wände! Elbnah und in 8 min. zu Fuß mitten im Barockviertel!,"43,21 m²",1,False,ad671c02-88aa-39f0-8c25-6399e8ee56c2
71242842,"Troppauer Str  19, Laubegast, Dresden",0,[Einbauküche],Frau Kathrin Berude,True,,Wohnung,208 €,,51.02791,13.83139,Miete,01219,Dresden,Laubegast,Klein aber fein,26 m²,2,False,ce264728-05c5-3e60-bca3-3cc6ac167c86
71304565,"Klotzsche, Dresden",15,[Balkon/Terrasse],Frau Sabine Socha,True,,Wohnung,440 €,,,,Miete,01109,Dresden,Klotzsche,2-RW m. gr. sonn. Dach-Terrasse u. Balkon in grüner ruh. Lage in kl. Wohnpark in Dresden-Klotzsche,"57,7 m²",2,False,e1b44548-d76b-39d6-a168-11eedfebe535
71463794,"Tolkewitz/Seidnitz-Nord, Dresden",3,"[Balkon/Terrasse, Garten]",Frau Ines Griese,False,,Wohnung,"330,85 €",,,,Miete,01279,Dresden,Tolkewitz/Seidnitz-Nord,Gemütliche 2-Zimmer-Wohnung mit Balkon in Dresden-Tolkewitz gesucht?,"50,9 m²",2,False,788834da-9717-30d8-9121-1e732b4ca677
71540797,"Müllerbrunnenstr. 2, Plauen, Dresden",11,[Balkon/Terrasse],Herr Robert Donath,True,,Wohnung,460 €,,51.03005,13.70509,Miete,01187,Dresden,Plauen,bezugsfertige 2-Zimmerwohnung im sanierten Altbau,"53,95 m²",2,True,a2f8781c-ac0f-3855-83fa-ad7c4eb525a4
71543800,"Löbtau-Nord, Dresden",12,"[Balkon/Terrasse, Einbauküche]",Frau Sabine Socha,True,,Wohnung,,128.000 €,,,Kauf,01159,Dresden,Löbtau-Nord,Sonn. 3-RW m. großem Eckbalkon in Dresden-Löbtau,"74,65 m²",3,False,e1b44548-d76b-39d6-a168-11eedfebe535
71616040,"Dohnaer Platz 15, Prohlis-Nord, Dresden",12,[],Herr Hans-Jürgen Gittel,True,,Wohnung,360 €,,51.00915,13.78562,Miete,01239,Dresden,Prohlis-Nord,Gemütlich Wohnen am Park,60 m²,"2,5",True,935ec30c-b575-39ea-8621-e732d092322e
71662076,"Briesnitz, Dresden",15,[],Frau Sabine Socha,True,1.700 m²,Haus,,490.000 €,,,Kauf,01157,Dresden,Briesnitz,Idyllisch gelegenes EFH im Grünen m. Wintergarten u. gr. Süd-Terrasse in Stadtrandlage DD-Briesnitz,250 m²,6,False,e1b44548-d76b-39d6-a168-11eedfebe535
71724891,"Altlockwitz 26, Lockwitz, Dresden",6,[Provisionsfrei*],Herr Kevin Hauke,False,1.840 m²,Haus,,180.000 €,50.98923,13.81174,Kauf,01257,Dresden,Lockwitz,Wohnen und Gewerbe | Hier ist alles möglich!,200 m²,8,True,afcafd41-5560-39d5-b583-de197fcd049a
71792353,"Permoserstraße 26, Johannstadt-Süd, Dresden",14,[Balkon/Terrasse], Wohnungsvermietung Dresden,True,,Wohnung,370 €,,51.04955,13.76197,Miete,01307,Dresden,Johannstadt-Süd,"Zentrumnahe, sanierte 3-Raum-Wohnung in Dresden",55 m²,3,False,953bda0c-1001-31df-a61f-88466c9bb41a
71814163,"Laubegast, Dresden",9,"[Balkon/Terrasse, Einbauküche, Garten]",Herr Frank  Schreiter,True,,Wohnung,1.070 €,,,,Miete,01279,Dresden,Laubegast,Idyllischer Wohntraum in Laubegast!,126 m²,"4,5",False,2eeacf09-f598-3a9a-a91d-11b60d67faa8
71938967,"Loschwitz/Wachwitz, Dresden",12,[],Herr André  Findeisen,True,1.050 m²,Haus,,822.000 €,,,Kauf,01326,Dresden,Loschwitz/Wachwitz,Großzügiges Wohnen mit Studio im Dachgeschoss in Dresden- Loschwitz - Effizienzhaus inkl. Grundstück,225 m²,6,False,aa044318-09c9-39dd-908c-00e67e16ada1
71940840,"Hosterwitz/Pillnitz, Dresden",15,[],Herr André  Findeisen,True,690 m²,Haus,,705.000 €,,,Kauf,01326,Dresden,Hosterwitz/Pillnitz,01326 Dresden - großzügiges Wohnen mit Studio im Dachgeschoss -  inkl. Grundstück und Keller,235 m²,6,False,aa044318-09c9-39dd-908c-00e67e16ada1
71941287,"Hosterwitz/Pillnitz, Dresden",10,[],Herr André  Findeisen,True,1.200 m²,Haus,,1.050.000 €,,,Kauf,01326,Dresden,Hosterwitz/Pillnitz,Bauhaus mit Elbblick in 01326 Dresden -  Effizienzhaus inkl. Grundstück und Keller,235 m²,5,False,aa044318-09c9-39dd-908c-00e67e16ada1
71993970,"Mickten, Dresden",5,[Einbauküche],Frau Anke Beinhoff,False,,Wohnung,,125.000 €,,,Kauf,01139,Dresden,Mickten,Investieren Sie in diese interessante Dachgeschoss-Maisonette-Wohnung mit Einbauküche!,"74,71 m²",3,False,019405f3-5948-3bd9-bd01-b1990006f621
72046456,"Johannes Brahms Straße 36, Kleinzschachwitz, Dresden",7,[Garten],Herr Wenzel,True,,Wohnung,250 €,,51.00128,13.85797,Miete,01259,Dresden,Kleinzschachwitz,"1,5 RWhg 2.OG in Toplage",34 m²,"1,5",True,a09c14d8-5bf1-3e14-b683-c0b09ec69e23
72096128,"Äußere Neustadt (Antonstadt), Dresden",6,"[Provisionsfrei*, Einbauküche]",Herr Frank  Schreiter,True,,Wohnung,,96.000 €,,,Kauf,01099,Dresden,Äußere Neustadt (Antonstadt),Prov-frei! Die besten Lokale der Neustadt direkt vor der Haustür!,56 m²,2,False,2eeacf09-f598-3a9a-a91d-11b60d67faa8
72116045,"Äußere Neustadt (Antonstadt), Dresden",3,[],Herr Christoph Käsemodel,True,,Wohnung,,93.346 €,,,Kauf,01099,Dresden,Äußere Neustadt (Antonstadt),Apartment zum Vermieten oder Eigennutzung in der Dresdner-Neustadt,49 m²,2,False,cda08f67-a92e-3dae-997a-9747dbfaac85
72116251,"Rhönweg 6, Naußlitz, Dresden",2,[],Herr Ullrich Vogel,True,,Wohnung,366 €,,51.03848,13.6883,Miete,01159,Dresden,Naußlitz,Erstbezug nach Sanierung * Erdgeschoss * Ruhige und grüne Lage,"56,3 m²",2,False,2a86b3e8-3ada-310c-9a56-e2bf5ffa1f28
72119125,"Klotzsche, Dresden",8,[], Herr Holger Günsch,True,,Wohnung,,59.000 €,,,Kauf,01109,Dresden,Klotzsche,Top Dachgeschosswohnung in gepflegter Anlage,41 m²,2,False,32e6c2bf-204b-37de-b244-21501210dbf8
72131667,"Berggartenstraße 42, Blasewitz, Dresden",7,"[Provisionsfrei*, Balkon/Terrasse, Garten]",Herr Rico Löwe,False,,Wohnung,,219.000 €,51.04767,13.80862,Kauf,01277,Dresden,Blasewitz,2-Zimmer-Wohnung mit Terrasse und Gartennutzung,72 m²,2,False,25203ced-5618-38fe-9dad-d1bec21be48b
72152266,"Radeberger Vorstadt, Dresden",2,[Balkon/Terrasse],Herr Christian Falkenberg,True,,Wohnung,,160.500 €,,,Kauf,01099,Dresden,Radeberger Vorstadt,Supergelegenheit im Preußischen Viertel,"80,3 m²",3,False,9a43dc2e-2349-3322-955d-c9242487a0c9
72261424,"Langebrück/Schönborn, Dresden",7,[],Herr André  Findeisen,True,800 m²,Haus,,268.700 €,,,Kauf,01465,Dresden,Langebrück/Schönborn,Architektenhaus in Langebrück - Effizienzhaus inkl. Grundstück,136 m²,4,False,aa044318-09c9-39dd-908c-00e67e16ada1
72292439,"Wägnerstraße 2, Blasewitz, Dresden",14,"[Balkon/Terrasse, Garten]", Herr André Ihle Frau Ines Löwe,True,,Wohnung,,160.000 €,51.05224,13.79677,Kauf,01309,Dresden,Blasewitz,FÜR KAPITALANLEGER! 3-Zimmer-Gartengeschosswohnung in Blasewitz mit Terrasse,"86,85 m²",3,False,f565fdaf-446d-31aa-ac7e-3a585aa452e3
72302874,"Klotzsche, Dresden",13,[],Herr André  Findeisen,True,710 m²,Haus,,539.000 €,,,Kauf,01109,Dresden,Klotzsche,01109 Dresden direkt vor einem Biotop - exklusives Bauhaus als Effizienhaus 55 inkl. Grundstück,195 m²,4,False,aa044318-09c9-39dd-908c-00e67e16ada1
72303038,"Klotzsche, Dresden",14,[],Herr André  Findeisen,True,935 m²,Haus,,590.000 €,,,Kauf,01109,Dresden,Klotzsche,01109 Dresden...Bauhaus inkl. Grundstück,210 m²,4,False,aa044318-09c9-39dd-908c-00e67e16ada1
72303227,"Klotzsche, Dresden",14,[],Herr André  Findeisen,True,955 m²,Haus,,780.000 €,,,Kauf,01109,Dresden,Klotzsche,OKAL  Bauhaus in 01109 Dresden -  Effizienzhaus inkl. Grundstück und Keller,235 m²,5,False,aa044318-09c9-39dd-908c-00e67e16ada1
72336756,"Bahnhofstraße 25, Leuben, Dresden",6,"[Balkon/Terrasse, Garten]",Herr Frank Meier,True,,Wohnung,675 €,,50.9998,13.83144,Miete,01259,Dresden,Leuben,3-R-Wohnung in schicker Villa,97 m²,3,False,bacd69b6-7389-3d24-8ed1-9ba674fafaf3
72408033,"Löbtau-Süd, Dresden",14,[Balkon/Terrasse],Frau Sabine Zille,True,,Wohnung,,105.000 €,,,Kauf,01159,Dresden,Löbtau-Süd,"Kuschelnest! - 2,5-Zimmer-Maisonette-Wohnung mit Südbalkon!","57,4 m²","2,5",False,06ca4433-b565-3d14-8b8d-c58ae49266da
72408487,"Teplitzer Straße 12 , Strehlen, Dresden",11,"[Provisionsfrei*, Einbauküche]",Herr Edgar Früchtel,True,,Wohnung,,72.500 €,51.03179,13.7503,Kauf,01219,Dresden,Strehlen,Investieren Sie in die Zukunft! Erwerben Sie ein Studentenapartment in direkter Uni-Nähe!,"19,49 m²",1,False,2fc1f478-2f8f-3417-a921-f9cc7e4bc3a9
72517006,"Langebrück/Schönborn, Dresden",10,[],Herr André  Findeisen,True,1.150 m²,Haus,,410.000 €,,,Kauf,01465,Dresden,Langebrück/Schönborn,01465 Dresden: niveauvolle Baulücke KfW-Haus mit über 200 m² inkl. Grundstück,195 m²,7,False,aa044318-09c9-39dd-908c-00e67e16ada1
72768177,"Rudolf-Renner-Str.  16, Cotta, Dresden",3,[],Herr Mathias Kunze,True,,Wohnung,438 €,,51.04894,13.69187,Miete,01157,Dresden,Cotta,"Schöne helle 2,5 Zi. DG Wohnung mit schönem Ausblick ",73 m²,"2,5",False,978e44b0-0a6a-3bc3-8608-dadad8f3b166
72847395,"Striesen-Ost, Dresden",5,[], Frank Plischke,False,,Wohnung,,69.000 €,,,Kauf,01277,Dresden,Striesen-Ost,Attraktive Kapitalanlage in Bestlage,"36,08 m²",1,False,8cf8ed0e-74ea-3c63-9ab1-60ff1d9db2a2
73070956,"Eisenacher Straße  8, Striesen-Ost, Dresden",8,[],Herr Philipp Weiß,True,,Wohnung,,75.000 €,51.04802,13.79648,Kauf,01309,Dresden,Striesen-Ost,Sicheres Investment!!! Super Lage!!!,50 m²,2,False,5c815da5-9d1c-3a4a-92a7-7473960e544e
73098805,"Schröterstraße 16, Reick, Dresden",21,"[Provisionsfrei*, Balkon/Terrasse, Einbauküche, Garten]",Herr Alexander Scheiter,True,,Wohnung,,97.000 €,51.0136,13.7836,Kauf,01237,Dresden,Reick,schönes Apartment mit neuer Einbauküche und Balkon,54 m²,1,False,556d4b39-12db-33c7-8730-58f30ce70b69
73142181,"Gondelweg 5, Kleinzschachwitz, Dresden",9,"[Provisionsfrei*, Balkon/Terrasse, Garten]",Herr Mario Jacob,True,,Wohnung,,112.500 €,51.0052,13.85536,Kauf,01259,Dresden,Kleinzschachwitz,Leben im Grünen in einer sehr gepflegten kleinen Wohnanlage,"59,83 m²",2,False,4212dcf1-c531-354c-ab2a-28e49c94c735
73146431,"Pirnaer Landstraße 303-305, Großzschachwitz, Dresden",6,[Provisionsfrei*], Geschäftsstelle Dresden,True,282 m²,Haus,,280.500 €,50.99282,13.85181,Kauf,01259,Dresden,Großzschachwitz,*** WOHNEN AM SEE *** NEUBAU VON VIER DOPPELHÄUSERN ***,"175,1 m²",5,False,eb40d8b3-26a6-384b-8054-09537dc958ba
73151895,"Cossebaude/Mobschatz/Oberwartha, Dresden",10,[Provisionsfrei*],Herr Gert Weißenborn,True,1.050 m²,Haus,,499.000 €,,,Kauf,01156,Dresden,Cossebaude/Mobschatz/Oberwartha,Repräsentative und elegante Stadtvilla,220 m²,6,False,69c663d5-4713-3caf-a481-fe776b3cf100
73207627,"Angelikastraße 15 A, Radeberger Vorstadt, Dresden",26,[Provisionsfrei*], Familie Grittmann,True,530 m²,Haus,,745.000 €,51.06844,13.78326,Kauf,01099,Dresden,Radeberger Vorstadt,Von Privat: Schreber-Villa im preußischen Viertel,296 m²,12,False,3f15390c-6850-361c-9b4d-66538dbfb043
73212843,"Laubestr. xxx, Striesen-Süd, Dresden",2,"[Provisionsfrei*, Garten]",Herr Rico Martin,True,,Wohnung,,260.500 €,51.04255,13.77889,Kauf,01309,Dresden,Striesen-Süd,Barrierefreie 3 Zimmer Wohnung mit viel Licht...!,"89,23 m²",3,False,6ca0f9b5-bcc6-346d-92cc-05e75871c539
73213101,"Laubestr.  xxx, Striesen-Süd, Dresden",2,"[Provisionsfrei*, Garten]",Herr Rico Martin,True,,Wohnung,,320.500 €,51.04255,13.77889,Kauf,01309,Dresden,Striesen-Süd,Familienfreundliche 4 Zimmer Wohnung mit vielen Extras...!,"110,32 m²",4,False,6ca0f9b5-bcc6-346d-92cc-05e75871c539
73213197,"Laubestr. xxx, Striesen-Süd, Dresden",2,"[Provisionsfrei*, Garten]",Herr Rico Martin,True,,Wohnung,,320.500 €,51.04255,13.77889,Kauf,01309,Dresden,Striesen-Süd,Elegante 4 Zimmer Etagenwohnung mit Terrasse und Garten...!,"110,92 m²",4,False,6ca0f9b5-bcc6-346d-92cc-05e75871c539
73337944,"Meißner Landstr. 139d, Briesnitz, Dresden",10,[Balkon/Terrasse],Frau Susann Weglowski,True,,Wohnung,360 €,,51.07914,13.65821,Miete,01157,Dresden,Briesnitz,Gemütliche 2-Zimmmer-Wohnung in DD-Stetzsch sucht neue Mieter,"61,9 m²",2,False,3aa409c0-0bd8-3a42-bbf2-b28706e10df3
73393664,"Pieschen-Süd, Dresden",13,[Garten],Herr André Lehmann,False,,Wohnung,,63.000 €,,,Kauf,01127,Dresden,Pieschen-Süd,"Schnäppchen für Kapitalanleger! 5,7 % Rendite! ** Fernblick über die Gärten, ruhige Lage & tolle","50,35 m²",2,False,535d57e2-51d2-3347-88c9-8c71802adf9f
73408754,"Löbtau-Süd, Dresden",1,[],Herr Christoph Käsemodel,False,990 m²,Haus,,1.300.000 €,,,Kauf,01159,Dresden,Löbtau-Süd,Investment in Dresden West - saniertes MFH mit 13 Wohnungen,910 m²,30,False,cda08f67-a92e-3dae-997a-9747dbfaac85
73534496,"Potschappler Straße 4, Coschütz/Gittersee, Dresden",3,"[Balkon/Terrasse, Einbauküche]", Kontakt mit uns,True,,Wohnung,,28.000 €,51.013,13.69335,Kauf,01189,Dresden,Coschütz/Gittersee,Single Apartment mit Balkon und Pantry Küche!,24 m²,1,False,454eb7c7-b1bd-3b96-aefa-973a13bba9ae
73610984,"Sonnenleite 3, Bühlau/Weißer Hirsch, Dresden",13,"[Balkon/Terrasse, Garten]",Frau Sylke Hoch,True,,Wohnung,525 €,,51.05887,13.82682,Miete,01324,Dresden,Bühlau/Weißer Hirsch,"++ Wohnen auf dem Weißen Hirsch, hochwertige 2-Zimmer-Whg mit Terrasse ++","58,34 m²",2,False,47c667c8-f0fa-3733-a907-9cf053b451c4
73635015,"Pfarrer-Schneider-Straße 2, Niedersedlitz, Dresden",25,"[Balkon/Terrasse, Einbauküche, Garten]",Herr Andre Glock,True,,Wohnung,440 €,,50.99849,13.82401,Miete,01257,Dresden,Niedersedlitz,"toll geschnittene 2-Raum-Wohnung mit  Balkon, Einbauküche & TG Stellplatz","64,03 m²",1,False,f7e900d8-3b37-30ab-8c4e-cda5916412f6
73645962,"Schweriner Str. 42, Wilsdruffer Vorstadt/Seevorstadt-West, Dresden",8,[],Herr Hendker,True,,Wohnung,528 €,,51.0531,13.72601,Miete,01067,Dresden,Wilsdruffer Vorstadt/Seevorstadt-West,"Wohnen in der Altstadt, Parkett, Prov-Frei","71,96 m²",3,True,e3aa5a54-3b52-3108-9a9c-a9160b4f6ed7
73689380,"Louisenstraße 66, Äußere Neustadt (Antonstadt), Dresden",6,[Balkon/Terrasse], ImmPrima GmbH Katja Bärisch,True,,Wohnung,511 €,,51.06567,13.75625,Miete,01099,Dresden,Äußere Neustadt (Antonstadt),grosszügige 2-Zimmer-Wohnung mit Balkon im Herzen der Neustadt,62 m²,2,False,c6fc9057-4740-3d1e-a735-3cc63e644a0f
73750651,"Bühlau/Weißer Hirsch, Dresden",3,[],Herr Sascha Naumann,False,7.640 m²,Haus,,399.000 €,,,Kauf,01324,Dresden,Bühlau/Weißer Hirsch,Wohnen und Arbeiten an einem Ort in Loschwitz/Bühlau,130 m²,16,False,9e3d0284-17ac-365f-9fb6-e60bec24c08b
73771778,"Pieschen-Süd, Dresden",7,[],Herr Ralf Richter,True,,Wohnung,350 €,,,,Miete,01139,Dresden,Pieschen-Süd,2-Zimmerwohnung mit Holzdielung,"54,09 m²",2,False,83cbe679-059b-3952-8d60-61fc790ab4f2
73773022,"Klotzsche, Dresden",14,[Provisionsfrei*],Herr André  Findeisen,True,645 m²,Haus,,387.000 €,,,Kauf,01109,Dresden,Klotzsche,01109 Dresden - Bauhaus als Effizienhaus inkl. Grundstück,138 m²,4,False,aa044318-09c9-39dd-908c-00e67e16ada1
73776638,"Mickten, Dresden",13,[],Herr André  Findeisen,True,705 m²,Haus,,503.000 €,,,Kauf,01139,Dresden,Mickten,01139 Dresden- großzügiges Wohnen mit Studio im Dachgeschoss ....Haus inkl. Grundstück,235 m²,6,False,aa044318-09c9-39dd-908c-00e67e16ada1
73837725,"Kötzschenbroder Str. 178, Kaditz, Dresden",4,[],Herr Dirk Moses,False,,Wohnung,,59.100 €,51.08748,13.68056,Kauf,01139,Dresden,Kaditz,2-RW mit Balkon im Familienwohnpark Kaditz zu verkaufen,"42,26 m²",2,False,3e2e2bb6-d8df-3764-92bd-30a5467d61be
73837728,"Kötzschenbroder Str. 178, Kaditz, Dresden",4,[Balkon/Terrasse],Herr Dirk Moses,True,,Wohnung,,95.000 €,51.08748,13.68056,Kauf,01139,Dresden,Kaditz,2-RW mit ausgebauten Spitzboden zu verkaufen,"62,31 m²",2,False,3e2e2bb6-d8df-3764-92bd-30a5467d61be
73837729,"Kötzschenbroder Str. 178, Kaditz, Dresden",4,[],Herr Dirk Moses,True,,Wohnung,,46.200 €,51.08748,13.68056,Kauf,01139,Dresden,Kaditz,Kleine 2-RW in Dresden-Kaditz zu verkaufen,"31,49 m²",2,False,3e2e2bb6-d8df-3764-92bd-30a5467d61be
73888315,"Braunsdorfer Straße 8, Löbtau-Nord, Dresden",9,[Garten],Frau Marie-Louise Hering,False,,Wohnung,,79.185 €,51.04802,13.69625,Kauf,01159,Dresden,Löbtau-Nord,attraktive Eigentumswohnung in Dresden-Löbtau,"54,61 m²",2,False,b51368eb-6573-3832-8ca1-036385111b6c
73910117,"Blasewitz, Dresden",10,[], Blumenauer Dresden GmbH,True,990 m²,Haus,,2.490.000 €,,,Kauf,01309,Dresden,Blasewitz,Stilvolles und denkmalgeschütztes Luxusdomizil in Dresden - Blasewitz,398 m²,10,False,d4ddbd00-633e-300f-bd31-14b9fc3434e4
73912077,"Warthaer Straße  4, Cotta, Dresden",0,[Garten],Herr Schumann,False,,Wohnung,300 €,,51.0616,13.68006,Miete,01157,Dresden,Cotta,"Warthaer Straße 4, Dresden, san. 2-R-WHG",50 m²,2,False,c8e48dd0-02ef-340c-9108-3045375ce9c2
73952503,"Löbtau-Nord, Dresden",2,"[Provisionsfrei*, Balkon/Terrasse, Garten]",Herr Udo Wittig FINANZKANZLEI WITTIG GmbH,True,,Wohnung,,270.400 €,,,Kauf,01159,Dresden,Löbtau-Nord,Im Dresdner Südwesten INVESTIEREN UND LEBEN! ,104 m²,4,False,4e1448a6-a6cb-3102-929b-4fda31617673
73973167,"Augsburger Straße 79, Striesen-Ost, Dresden",5,"[Balkon/Terrasse, Garten]",Herr Peter Rößner,True,,Wohnung,,155.000 €,51.04522,13.79888,Kauf,01277,Dresden,Striesen-Ost,2-R-Whg. zum Wohlfühlen! San. Altbau in begehrter Wohnlage. Dresden Striesen,59 m²,2,False,aebdf5df-9315-39b7-8071-57a0b078759f
74038643,"Tolkewitz/Seidnitz-Nord, Dresden",3,"[Balkon/Terrasse, Garten]",Herr Gottfried Schumacher,True,,Wohnung,,132.000 €,,,Kauf,01279,Dresden,Tolkewitz/Seidnitz-Nord,Wohnen in guter und ruhiger Lage zwischen Striesen und Tolkewitz,80 m²,3,False,cbcfa691-fc7f-3b41-a375-6ae834758633
74044220,"Behrischstraße 24, Striesen-Ost, Dresden",7,[Balkon/Terrasse],Herr Carl Neitzke,True,,Wohnung,400 €,,51.04313,13.80225,Miete,01277,Dresden,Striesen-Ost,DAHEIM ENTSPANNEN!!2-Zimmer Wohnung in ruhiger Seitenstraße mit großer Terrasse in Striesen.,50 m²,2,False,840525ee-bd24-3750-9d85-7aa34a55a8fe
74045555,"Hosterwitz/Pillnitz, Dresden",1,[],Herr Uwe Heinitz,False,2.600 m²,Haus,,2.150.000 €,,,Kauf,01326,Dresden,Hosterwitz/Pillnitz,Einzigartige Atriumvilla in unwiederbringlicher Lage unterhalb des Elbhanges,625 m²,13,False,4e3d08ca-2b72-3445-b0ac-0222d40079b2
74083004,"Wilhelm-Franz-Straße 7, Cotta, Dresden",24,[], CENTURION Invest & Projekt- gesellschaft mbH & Co. KG,False,,Wohnung,350 €,,51.04983,13.68215,Miete,01157,Dresden,Cotta,"!! Helle 2 RWE, Bad mit Wanne und Fenster !!","64,1 m²",2,False,0f461593-222f-327a-b291-d292ba9d5ec5
74105670,"Reick, Dresden",12,[Balkon/Terrasse],Frau Anke Beinhoff,False,,Wohnung,,46.000 €,,,Kauf,01239,Dresden,Reick,"Kleine, heimelige Wohnung mit Balkon!",35 m²,"1,5",False,019405f3-5948-3bd9-bd01-b1990006f621
74191736,"Naußlitz, Dresden",8,"[Balkon/Terrasse, Garten]",Herr Christoph Käsemodel,True,,Wohnung,,214.200 €,,,Kauf,01169,Dresden,Naußlitz,Gelegenheit - 112 m² Maisonette 3-Zimmer-ETW im Dresdner Süden mit Balkon,112 m²,3,False,cda08f67-a92e-3dae-997a-9747dbfaac85
74192133,"Naußlitz, Dresden",5,"[Balkon/Terrasse, Garten]",Herr Christoph Käsemodel,False,,Wohnung,,144.150 €,,,Kauf,01169,Dresden,Naußlitz,Verkauf: sanierte 3-Zimmer-ETW  + alternativ weitere 6 ETW im Dresdner Süden,"82,5 m²",3,False,cda08f67-a92e-3dae-997a-9747dbfaac85
74223570,"Kamenzer Straße 42b, Äußere Neustadt (Antonstadt), Dresden",3,[Balkon/Terrasse],Herr Peter Heil,True,,Wohnung,,97.500 €,51.06868,13.75921,Kauf,01099,Dresden,Äußere Neustadt (Antonstadt),Sonniges Apartment mit Lift 3. Obergeschoss am Alaunpark,"55,17 m²","1,5",False,932fe147-d6e5-3d3a-bfd0-7263d7672a1c
74234039,"Johannstadt-Nord, Dresden",3,[Einbauküche],Frau Kestner,False,,Wohnung,370 €,,,,Miete,01307,Dresden,Johannstadt-Nord,* Über den Dächern in Johannstadt *  Bad mit Wanne und vieles mehr...,55 m²,2,False,c05bc699-b13c-3ffd-bee4-e375107abd18
74277294,"Laubegast, Dresden",6,"[Provisionsfrei*, Balkon/Terrasse, Garten]",Herr Gottfried Schumacher,True,,Wohnung,,249.000 €,,,Kauf,01279,Dresden,Laubegast,Sonnige Dachterasse-Etagenwohnung mit Blick zum Elbhang in ruhiger Lage mit Kaminanschlus,"98,7 m²",3,False,cbcfa691-fc7f-3b41-a375-6ae834758633
74281458,"Trachau, Dresden",13,[Balkon/Terrasse],Frau Jeannette Tröbs,True,,Wohnung,,76.000 €,,,Kauf,01129,Dresden,Trachau,"Kernsanierte 2-Zimmer-Wohnung mit Balkon! Rendite  3,25%*","53,66 m²",2,False,40a3a1a1-5e9b-3074-a526-8f35e37b08a8
74314937,"Pohlandplatz 1, Striesen-Ost, Dresden",8,[],Herr Oliver Roth,True,,Wohnung,,164.600 €,51.04369,13.79483,Kauf,01309,Dresden,Striesen-Ost,"unter 2.000,- EUR/qm  in BestLage","84,52 m²",4,False,873e2b82-35f1-3457-a5d8-634338d03ddd
74421403,"Friedrichstadt, Dresden",4,[Balkon/Terrasse],Frau Sabine Rüther,False,,Wohnung,,86.000 €,,,Kauf,01067,Dresden,Friedrichstadt,Nur wenige Minuten ins Stadtzentrum! 2-Zi.-ETW mit Aufzug und Balkon in Dresden- Friedrichstadt,66 m²,2,False,183a3293-29c1-343d-9965-0d45ba49010b
74537437,"Briesnitz, Dresden",13,"[Provisionsfrei*, Balkon/Terrasse, Garten]",Herr Christoph Eberle,True,,Wohnung,,415.000 €,,,Kauf,01157,Dresden,Briesnitz,Einzug 2015 - Wohntraum mit extra großem Südbalkon,"154,08 m²",4,False,00f66aa7-37e9-3eac-967b-f99df5c3e090
74585868,"Heinz-Bongartz-Str.  12, Lockwitz, Dresden",5,[],Frau Katrin Schöne,True,,Wohnung,446 €,,50.99054,13.79363,Miete,01239,Dresden,Lockwitz,sonnige 3 Raumwohnung in historischem Gebäude,"74,75 m²",3,False,698e8862-39e5-3af8-9eb0-e12645de1430
74647043,"Amalie-Dietrich-Platz  7, Gorbitz-Süd, Dresden",7,[],Frau Lisa Nisius,True,,Wohnung,173 €,,51.04289,13.67736,Miete,01169,Dresden,Gorbitz-Süd,Frisch Sanierte Wohnung über den Köpfen Dresdens,"26,89 m²",1,False,d871ab90-dffd-3526-80f7-37572d4234d4
74657267,"Löbtau-Nord, Dresden",2,[Balkon/Terrasse],Herr Stephan Haase,False,,Wohnung,,299.000 €,,,Kauf,01159,Dresden,Löbtau-Nord,5-Zimmer-Neubauwohnung über die gesamte Etage,130 m²,5,False,5b8464a2-85f5-3084-9e31-4cae944cad6b
74733332,"Eibenstocker Straße 111, Gruna, Dresden",11,"[Provisionsfrei*, Balkon/Terrasse]",Frau Alexandra Gärtner,True,,Wohnung,,305.000 €,51.03541,13.79975,Kauf,01277,Dresden,Gruna,"INFOTAG AM SAMSTAG, DEM 08.08. UND 15.08. VON 10-12 UHR","129,19 m²",4,False,cfcb7005-6734-3634-8d64-aafb6a7d08b4
74733338,"Eibenstocker Straße 113a, Gruna, Dresden",11,"[Provisionsfrei*, Balkon/Terrasse]",Frau Alexandra Gärtner,True,,Wohnung,,329.000 €,51.03541,13.79975,Kauf,01277,Dresden,Gruna,"INFOTAG AM SAMSTAG, DEM 08.08. UND 15.08. VON 10-12 UHR","126,93 m²",4,False,cfcb7005-6734-3634-8d64-aafb6a7d08b4
74733362,"Eibenstocker Straße 109, Gruna, Dresden",11,"[Provisionsfrei*, Balkon/Terrasse]",Frau Alexandra Gärtner,True,,Wohnung,,259.000 €,51.03541,13.79975,Kauf,01277,Dresden,Gruna,"INFOTAG AM SAMSTAG, DEM 08.08. UND 15.08. VON 10-12 UHR","108,06 m²",4,False,cfcb7005-6734-3634-8d64-aafb6a7d08b4
74733370,"Eibenstocker Straße 111, Gruna, Dresden",11,"[Provisionsfrei*, Balkon/Terrasse]",Frau Alexandra Gärtner,True,,Wohnung,,339.000 €,51.03541,13.79975,Kauf,01277,Dresden,Gruna,"INFOTAG AM SAMSTAG, DEM 08.08. UND 15.08. VON 10-12 UHR","158,87 m²",5,False,cfcb7005-6734-3634-8d64-aafb6a7d08b4
74737814,"Leipziger Vorstadt, Dresden",5,[Garten],Herr Christoph Käsemodel,True,,Wohnung,,90.000 €,,,Kauf,01099,Dresden,Leipziger Vorstadt,3-Zimmer-ETW in der Äußeren Neustadt,67 m²,3,False,cda08f67-a92e-3dae-997a-9747dbfaac85
74744426,"Naußlitz, Dresden",12,"[Balkon/Terrasse, Einbauküche]",Frau Karin Barthold,True,,Wohnung,,110.000 €,,,Kauf,01169,Dresden,Naußlitz,Maisonette-Wohnung in ruhiger Lage von Dresden West,85 m²,3,False,91842c08-d0d7-3953-8f09-844d349b1a28
74784204,"Pieschen-Süd, Dresden",3,"[Balkon/Terrasse, Einbauküche]", Maik Lehmann,False,,Wohnung,,69.000 €,,,Kauf,01127,Dresden,Pieschen-Süd,Attraktive 2-Zimmer-Eigentumswohnung incl. Stellplatz in der Landeshauptstadt Dresden,"45,9 m²",2,False,3a63453f-92c8-38d6-b24a-984da9a0d91c
74784207,"Radeberger Vorstadt, Dresden",3,[Balkon/Terrasse], Maik Lehmann,False,,Wohnung,,69.900 €,,,Kauf,01099,Dresden,Radeberger Vorstadt,Klein - aber fein: solide Kapitalanlage,"33,84 m²",1,False,3a63453f-92c8-38d6-b24a-984da9a0d91c
74792668,"Wilhelm-Franz-Str.  6, Cotta, Dresden",2,[Garten],Herr Jens Wustmann,False,,Wohnung,355 €,,51.05024,13.68185,Miete,01157,Dresden,Cotta,Helle 2 Raum Wohnung in der Mansarde sofort zu vermieten,"56,09 m²",2,False,4692da41-d1e4-3fd8-8c70-e7ded7b46524
74801906,"Cotta, Dresden",8,"[Balkon/Terrasse, Garten]",Herr Mathias Kunze,True,,Wohnung,320 €,,,,Miete,01157,Dresden,Cotta,Großzügige 1 Zimmer Wohnung mit Terrasse,53 m²,1,False,978e44b0-0a6a-3bc3-8608-dadad8f3b166
74805147,"Äußere Neustadt (Antonstadt), Dresden",3,[],Frau Katrin Hähle,True,,Wohnung,,114.950 €,,,Kauf,01097,Dresden,Äußere Neustadt (Antonstadt),3 Zimmer Wohnung mit Balkon - vermietet!,"74,2 m²",3,False,03269460-a660-348e-8f91-01f8d6596cd2
74805520,"Klotzsche, Dresden",2,[Einbauküche],Frau Katrin Hähle,True,,Wohnung,,70.000 €,,,Kauf,01109,Dresden,Klotzsche,Günstige Anlage in Klotzsche!,"45,03 m²",2,False,03269460-a660-348e-8f91-01f8d6596cd2
74805716,"Klotzsche, Dresden",8,[],Frau Katrin Hähle,True,,Wohnung,,80.000 €,,,Kauf,01109,Dresden,Klotzsche,Zur Anlage - gut vermietete 2 Zimmer Wohnung mit Terrasse und Stellplatz!,56 m²,2,False,03269460-a660-348e-8f91-01f8d6596cd2
74811571,"Pieschen-Nord/Trachenberge, Dresden",16,[],Herr André  Findeisen,True,1.490 m²,Haus,,695.000 €,,,Kauf,01129,Dresden,Pieschen-Nord/Trachenberge,01129 Dresden - Architektenvilla mit Studio-Loft im KfW 55-Standart - Haus inkl. Grundstück,235 m²,6,False,aa044318-09c9-39dd-908c-00e67e16ada1
74883024,"Blasewitz, Dresden",5,"[Balkon/Terrasse, Garten]",Herr Andreas  Schwarz,True,,Wohnung,,140.000 €,,,Kauf,01277,Dresden,Blasewitz,Dresden/Blasewitz – 2 R.-Wohnung mit DP-Stellplatz für Eigennutzer oder Anleger,82 m²,2,False,f741dc56-458c-30ee-8326-d105fd11d6e0
74899893,"Äußere Neustadt (Antonstadt), Dresden",10,[Einbauküche],Herr Marcus Armand Uebel,False,,Wohnung,,59.900 €,,,Kauf,01067,Dresden,Äußere Neustadt (Antonstadt),Im Herzen der Dresdner  Neustadt wohnen,30 m²,1,False,8b8cd476-52bb-3ba2-a820-3e6328cf8be9
74918793,"Dammweg 14, Äußere Neustadt (Antonstadt), Dresden",16,"[Balkon/Terrasse, Garten]",Herr Bernd Riedel,True,,Wohnung,,87.000 €,51.07209,13.74913,Kauf,01097,Dresden,Äußere Neustadt (Antonstadt),2-Zi.-Wohnung in der Dresdner Neustadt,"53,19 m²",2,False,75b72d90-d3ef-350a-bde4-8d8c8b3fc4dd
74981699,"Laubegast, Dresden",8,[Balkon/Terrasse],   Immobilienbüro Mikulsky,True,,Wohnung,,130.000 €,,,Kauf,01279,Dresden,Laubegast,Achtung Anleger 5% Rendite - gut vermietete 3 Zi.ETW in DD Laubegast. Aus dem Angebot von immomik.de,70 m²,3,False,fe9cda98-9b5f-32f6-aac8-a48f3b9bd6a2
75046359,"Großzschachwitz, Dresden",7,[],Frau Antje Burkhardt,True,,Wohnung,,89.000 €,,,Kauf,01259,Dresden,Großzschachwitz,"CA 4,6 % RENDITE - SONNIGE DG-WOHNUNG  IN GROSSZSCHACHWITZ - ","67,3 m²",2,False,0f5760db-a5c6-32ff-8567-8f9ab449e60f
75115483,"Bühlau/Weißer Hirsch, Dresden",9,"[Balkon/Terrasse, Einbauküche, Garten]",Herr Maximilian Wilde,True,,Wohnung,,130.000 €,,,Kauf,01324,Dresden,Bühlau/Weißer Hirsch,Ihr neues Zuhause in exponierter Lage von Dresden-Weißer Hirsch,"88,13 m²",3,False,2f8e929a-8074-34a2-84e8-e29f353b9a71
75120896,"Plauen, Dresden",20,[],Herr Marcus Armand Uebel,True,,Wohnung,,136.000 €,,,Kauf,01187,Dresden,Plauen,Sofort bezugsfrei wunderschöne Maisonette in begehrter Lage,"78,19 m²",4,False,8b8cd476-52bb-3ba2-a820-3e6328cf8be9
75132176,"Schönfeld/Schullwitz, Dresden",7,[], Geschäftsstelle Dresden,True,,Wohnung,1.152 €,,,,Miete,01328,Dresden,Schönfeld/Schullwitz,"*** In Schönfeld am Schloss, große Wohnung oder Büro im Dachgeschoss ***",192 m²,3,False,eb40d8b3-26a6-384b-8054-09537dc958ba
75178551,"Strehlen, Dresden",9,[Garten],Herr Christoph Eberle,True,,Wohnung,,162.000 €,,,Kauf,01219,Dresden,Strehlen,In Bestlage von Dresden-Strehlen: perfekte 3-Zimmer-Wohnung!,"99,65 m²",3,False,00f66aa7-37e9-3eac-967b-f99df5c3e090
75197437,"Briesnitz, Dresden",3,[],Frau Sabine Socha,False,900 m²,Haus,,300.000 €,,,Kauf,01157,Dresden,Briesnitz,"Gewerbeimmobilie ausbaubar als EFH, DHH oder RHH in absolut grüner idyllischer Lage von DD-Briesnitz",300 m²,10,False,e1b44548-d76b-39d6-a168-11eedfebe535
75206858,"Langebrück/Schönborn, Dresden",4,[], Peter Gurland,False,,Wohnung,,95.000 €,,,Kauf,01465,Dresden,Langebrück/Schönborn,Langebrück: Erdgeschoßwohnung an der Dresdner Heide,"61,93 m²",2,False,4b805b0f-89aa-3bdc-9689-923ad40d98f5
75206982,"Blasewitz, Dresden",6,[Garten], Peter Gurland,False,,Wohnung,,98.000 €,,,Kauf,01277,Dresden,Blasewitz,Dresden-Blasewitz: 2 Zimmerwohnung Nähe Schillerplatz,60 m²,2,False,4b805b0f-89aa-3bdc-9689-923ad40d98f5
75207072,"Klotzsche, Dresden",11,[], Peter Gurland,False,200 m²,Haus,,250.000 €,,,Kauf,01109,Dresden,Klotzsche,DD-Klotzsche: Gepflegte DHH am Wiesenrand,105 m²,3,False,4b805b0f-89aa-3bdc-9689-923ad40d98f5
75212053,"Schweizstr. 5, Großzschachwitz, Dresden",7,[],Herr Rudolf Hamann,True,,Wohnung,,109.000 €,50.99979,13.83758,Kauf,01259,Dresden,Großzschachwitz,"Schöne, ruhig gelegene Dreizimmer-Wohnung mit Wohnküche","71,68 m²",3,False,9d2dad87-4bef-371f-af55-a1cd7d1232fe
75245395,"Döbelner Str. 32, Pieschen-Nord/Trachenberge, Dresden",7,[],Frau Karen Jähring,True,,Wohnung,380 €,,51.09077,13.73162,Miete,01129,Dresden,Pieschen-Nord/Trachenberge,2 Zimmerwohnung im Grünen,52 m²,2,False,7b7b24e6-3aaf-375a-989b-60c73220bd6f
75318822,"Löbtau-Süd, Dresden",8,"[Provisionsfrei*, Balkon/Terrasse, Garten]",Herr André Bartlewski,False,,Wohnung,,364.840 €,,,Kauf,01159,Dresden,Löbtau-Süd,Küche inklusive!!! traumhafte 5-Raum-Wohnung am Park,"128,5 m²",5,False,fa2480f0-8340-36a8-83bb-82cd964f7377
75333975,"Striesen-West, Dresden",16,[Balkon/Terrasse],Herr Michael Barsch,False,,Wohnung,,450.000 €,,,Kauf,01309,Dresden,Striesen-West,EINMALIGE JUGENSTILWOHNUNG ***UNIKAT***ORIGINAL***,"197,7 m²",7,False,02c8398f-738b-3922-9ce5-b157e6205eac
75335398,"Podemusstraße 11, Briesnitz, Dresden",5,[Garten],Herr Schumann,False,,Wohnung,"666,40 €",,51.0795,13.66072,Miete,01157,Dresden,Briesnitz,"san. 3-R-WHG in Dresden, Podemusstraße 11",98 m²,3,False,c8e48dd0-02ef-340c-9108-3045375ce9c2
75341096,"Strehlen, Dresden",14,[Einbauküche],Herr Michael Oeller,True,,Wohnung,,72.500 €,,,Kauf,01219,Dresden,Strehlen,"Sofort einziehen oder 6% Rendite erzielen! Helle Maisonette mit EBK, Balkon, TG + Aufzug, Nähe TU!",54 m²,"1,5",False,90435cbc-228a-3e0e-809a-56bbb1c4edd1
75354402,"Löbtau-Süd, Dresden",7,[Balkon/Terrasse],Herr Achim Deutschmann,True,,Wohnung,,97.500 €,,,Kauf,01159,Dresden,Löbtau-Süd,Attr. 3 Raum Whg. mit Balkon & TG in zentr. Lage von DD-Löbtau für Eigennutzer und Kapitalanleger,"61,62 m²",3,False,c77bae8b-8194-3d51-aa32-c6111d12586c
75354448,"Großzschachwitz, Dresden",12,[Balkon/Terrasse],Herr Achim Deutschmann,True,,Wohnung,,128.000 €,,,Kauf,01259,Dresden,Großzschachwitz,"LAGE, AUSSTATTUNG UND PREIS TOP
Vermietete 3 Raum Wohnung in begehrter Wohnlage für Kapitalanleger","74,5 m²",3,False,c77bae8b-8194-3d51-aa32-c6111d12586c
75362322,"Pieschen-Süd, Dresden",10,[Balkon/Terrasse],Herr Jörg Sträche,True,,Wohnung,,65.000 €,,,Kauf,01127,Dresden,Pieschen-Süd,"DD-Pieschen, 2-Raumwohnung, gemütlich, mit Balkon und Aufzug, 48 m² Wfl.",48 m²,2,False,294f7919-71c7-3c43-a179-6769a77bdb80
75370528,"Wilsdruffer Vorstadt/Seevorstadt-West, Dresden",10,"[Provisionsfrei*, Balkon/Terrasse, Garten]",Herr Rico Löwe,True,,Wohnung,,495.000 €,,,Kauf,01067,Dresden,Wilsdruffer Vorstadt/Seevorstadt-West,Dachgeschosstraum in bester Altstadtlage,137 m²,5,False,25203ced-5618-38fe-9dad-d1bec21be48b
75378040,"Niedersedlitz, Dresden",11,[Balkon/Terrasse],Frau Ute Ihra,True,,Wohnung,433 €,,,,Miete,01257,Dresden,Niedersedlitz,"Bad mit Wanne u. Dusche, Wohnküche, Balkon!, www.cmdd.de","69,8 m²",2,False,587b1f9f-0981-3b59-bce0-54f354b2052d
75435725,"Erna-Berger-Straße 19-25, Äußere Neustadt (Antonstadt), Dresden",6,"[Provisionsfrei*, Balkon/Terrasse, Garten]",Herr Oliver Roth,True,,Wohnung,,199.000 €,51.06547,13.74377,Kauf,01097,Dresden,Äußere Neustadt (Antonstadt),"""gesünder leben"" in gut geschnittener 2 Zimmerwohnung","59,71 m²",2,False,873e2b82-35f1-3457-a5d8-634338d03ddd
75440038,"Erna-Berger-Straße 19-25, Äußere Neustadt (Antonstadt), Dresden",6,"[Provisionsfrei*, Balkon/Terrasse, Garten]",Herr Oliver Roth,True,,Wohnung,,314.000 €,51.06547,13.74377,Kauf,01097,Dresden,Äußere Neustadt (Antonstadt),Große 4 - Raumwohnung aus Vollholz,"105,05 m²",4,False,873e2b82-35f1-3457-a5d8-634338d03ddd
75440911,"Pieschen-Nord/Trachenberge, Dresden",11,[Balkon/Terrasse], Oelschläger Immobilien GmbH,False,,Wohnung,,140.816 €,,,Kauf,01097,Dresden,Pieschen-Nord/Trachenberge,NEU SANIERTE EIGENTUMSWOHNUNGEN IN MODERNEM DENKMALSCHUTZOBJEKT,"88,01 m²",3,False,dd4c367d-71ed-389b-a0d5-27bad618af2c
75465236,"Pieschen-Nord/Trachenberge, Dresden",11,[Balkon/Terrasse], Oelschläger Immobilien GmbH,False,,Wohnung,,133.776 €,,,Kauf,01097,Dresden,Pieschen-Nord/Trachenberge,NEU SANIERTE EIGENTUMSWOHNUNGEN IN MODERNEM DENKMALSCHUTZOBJEKT,"83,61 m²",3,False,dd4c367d-71ed-389b-a0d5-27bad618af2c
75470566,"Pieschen-Nord/Trachenberge, Dresden",8,[], Oelschläger Immobilien GmbH,False,,Wohnung,,114.960 €,,,Kauf,01097,Dresden,Pieschen-Nord/Trachenberge,NEU SANIERTE EIGENTUMSWOHNUNGEN IN MODERNEM DENKMALSCHUTZOBJEKT,"71,85 m²",2,False,dd4c367d-71ed-389b-a0d5-27bad618af2c
75470698,"Pieschen-Nord/Trachenberge, Dresden",8,[], Oelschläger Immobilien GmbH,False,,Wohnung,,118.608 €,,,Kauf,01097,Dresden,Pieschen-Nord/Trachenberge,NEU SANIERTE EIGENTUMSWOHNUNGEN IN MODERNEM DENKMALSCHUTZOBJEKT,"74,13 m²",2,False,dd4c367d-71ed-389b-a0d5-27bad618af2c
75480543,"Radeberger Vorstadt, Dresden",4,[], Engel & Völkers Dresden Blaues Wunder,True,,Wohnung,,690.000 €,,,Kauf,01099,Dresden,Radeberger Vorstadt,Luxus - Loft am Elberadweg mit Weitblick !,192 m²,4,False,e021e1c2-2540-366c-b56c-6ce26f42cbc1
75494994,"Menageriestr. 3, Friedrichstadt, Dresden",3,[],Frau Katrin Hähle,True,,Wohnung,,74.500 €,51.05693,13.71399,Kauf,01067,Dresden,Friedrichstadt,Gut vermietete - großzügige 2-R-W im Dachgeschoss in der Friedrichstadt!,"60,23 m²",2,False,03269460-a660-348e-8f91-01f8d6596cd2
75496018,"Plauen, Dresden",5,[Garten],Herr Christoph Käsemodel,True,,Wohnung,,160.000 €,,,Kauf,01187,Dresden,Plauen,Gewerbeeinheit (ETW) in Dresden-Plauen zu verkaufen,101 m²,3,False,cda08f67-a92e-3dae-997a-9747dbfaac85
75514523,"Holbeinstraße 90, Striesen-West, Dresden",20,"[Balkon/Terrasse, Einbauküche, Garten]",Herr Steffen Hallmann,True,,Wohnung,,137.300 €,51.04765,13.77771,Kauf,01309,Dresden,Striesen-West,"**Eigennutzer**Citynahe Stadtwohnung mit Südbalkon, EBK, Wohnküche, Abstellraum...!","77,12 m²",3,False,88fe3eac-769c-367c-a665-c30637a4308e
75583183,"Gompitz/Altfranken, Dresden",10,"[Balkon/Terrasse, Einbauküche]",Frau Cathleen Sträche,True,,Wohnung,,307.500 €,,,Kauf,01156,Dresden,Gompitz/Altfranken,"Dresden-Gompitz (im Paket, 3 Stück), 2 Zimmer-ETW, je ca. 64 m² Wfl., TG-Stellplatz",192 m²,6,False,3c10be4b-1770-3f57-8310-e5e4691060b7
75583193,"Gompitz/Altfranken, Dresden",9,"[Balkon/Terrasse, Einbauküche]",Herr Jörg Sträche,True,,Wohnung,,102.500 €,,,Kauf,01156,Dresden,Gompitz/Altfranken,"Dresden- Gompitz , Traumhafte 2-Zimmer Wohnung, ca. 64 m² Wfl., TG-Stellplatz",64 m²,2,False,294f7919-71c7-3c43-a179-6769a77bdb80
75585959,"Cotta, Dresden",9,"[Balkon/Terrasse, Einbauküche, Garten]",Herr Christoph Käsemodel,True,,Wohnung,,115.000 €,,,Kauf,01157,Dresden,Cotta,2004 errichteter Neubau - 2-Zimmer-ETW als Anlageobjekt in Dresden West,"63,5 m²",2,False,cda08f67-a92e-3dae-997a-9747dbfaac85
75605996,"Fetscherstr. 25, Striesen-Süd, Dresden",1,[Balkon/Terrasse],Herr Markus Dangl,True,,Wohnung,"319,57 €",,51.04575,13.77051,Miete,01307,Dresden,Striesen-Süd,1 Zi.-Dachterassenwohnung,"42,61 m²",1,False,db67f256-9116-33b6-a272-6ebff63e94dc
75632820,"Jacob-Winter-Platz 1, Prohlis-Süd, Dresden",7,[Balkon/Terrasse],Frau Christina Cendelin,True,,Wohnung,290 €,,51.00445,13.79743,Miete,01239,Dresden,Prohlis-Süd,"WG-Flat - hier lässt es sich studieren, monatlich 100 € Studenten-/Azubibonus","78,52 m²",3,False,848df53d-318b-378f-b813-6c2c59e25c70
75704168,"Striesen-West, Dresden",6,"[Provisionsfrei*, Balkon/Terrasse, Garten]",Herr Rico Löwe,False,,Wohnung,,299.400 €,,,Kauf,01309,Dresden,Striesen-West,"Baubeginn erfolgt!!! 4-Zimmer-Wohnung mit Tiefgarage, Lift, Fußbodenheizung und Blick in die Gärten",101 m²,4,False,25203ced-5618-38fe-9dad-d1bec21be48b
75757716,"Weißig, Dresden",7,[Balkon/Terrasse], Maik Lehmann,False,,Wohnung,,74.900 €,,,Kauf,01328,Dresden,Weißig,Auch für Eigennutzer: Derzeit gut vermietete 2-Zimmerwohnung mit Terrasse und Tiefgaragenstellplatz,"55,2 m²",2,False,3a63453f-92c8-38d6-b24a-984da9a0d91c
75855060,"Grillparzerstr.  25, Cotta, Dresden",10,"[Balkon/Terrasse, Einbauküche, Garten]",Frau Thümmel,True,,Wohnung,399 €,,51.05659,13.68365,Miete,01157,Dresden,Cotta,EG oder 2.OG! schön geschnitten mit großem Balkon und Abstellkammer,55 m²,2,True,7d567153-b1b5-3c47-9aaa-4f05a4117b37
75862466,"Blasewitz, Dresden",11,"[Balkon/Terrasse, Einbauküche, Garten]",Herr Benjamin Franke,True,,Wohnung,,200.000 €,,,Kauf,01309,Dresden,Blasewitz,Blasewitz - schicke 2-Zi.-Wohnung mit 2 Balkonen in einem parkähnlichen Grundstück,"68,8 m²",2,False,770c01e5-1a02-32c5-b2fa-13ef5db6636e
75866941,"Tolkewitz/Seidnitz-Nord, Dresden",3,[Balkon/Terrasse],Herr Stephan Haase,False,,Wohnung,,397.000 €,,,Kauf,01279,Dresden,Tolkewitz/Seidnitz-Nord,Denkmal-Erstbezug nach Sanierung. Elegante Altbau-Wohnungen in restaurierter Stadtvilla,139 m²,5,False,5b8464a2-85f5-3084-9e31-4cae944cad6b
75867474,"Hosterwitz/Pillnitz, Dresden",6,[Garten],Herr Wilfried Franke,True,,Wohnung,,128.000 €,,,Kauf,01326,Dresden,Hosterwitz/Pillnitz,"Niederpoyritz - 3-Zi.-Wohnung mit Balkon, Gartenanteil und TG-Stellplatz",72 m²,3,False,b18cbdc2-135c-3dee-bc73-6833834f252b
75897883,"Tharandter Straße 105, Naußlitz, Dresden",6,"[Einbauküche, Garten]",Herr Karsten Wilke,True,,Wohnung,305 €,,51.02242,13.6982,Miete,01187,Dresden,Naußlitz,"Loftwohnung in Uninähe! Strom, TV und Inet INKLUSIVE!","33,86 m²",1,False,3721d624-ebad-3e46-9214-dc80f87d2e82
75910719,"Töpferstraße 4, Innere Altstadt, Dresden",11,"[Balkon/Terrasse, Einbauküche]",Frau Petra Schubert,True,,Wohnung,870 €,,51.05236,13.74029,Miete,01067,Dresden,Innere Altstadt,Mitten im historischen Dresden! 3 Zimmer-Wohnung an der Frauenkirche,"82,9 m²",3,False,77f136ec-e8d5-312f-8039-5510b30b47e3
75924451,"Pieschen-Nord/Trachenberge, Dresden",8,[], Engel & Völkers Dresden Blaues Wunder,True,490 m²,Haus,,497.500 €,,,Kauf,01129,Dresden,Pieschen-Nord/Trachenberge,Modern Wohnen im historischen Gewand!,205 m²,7,False,e021e1c2-2540-366c-b56c-6ce26f42cbc1
75935430,"Kleinzschachwitz, Dresden",2,[],Herr Christoph Käsemodel,False,1.000 m²,Haus,,649.000 €,,,Kauf,01259,Dresden,Kleinzschachwitz,Wohlfühl-Oase in einer der schönsten Wohnlagen von Dresden,250 m²,10,False,cda08f67-a92e-3dae-997a-9747dbfaac85
75942275,"Tauernstraße 32a, Laubegast, Dresden",15,"[Provisionsfrei*, Balkon/Terrasse]", Frau Bettina Tennhard,False,,Wohnung,,"108.547,99 €",51.02315,13.83038,Kauf,01279,Dresden,Laubegast,Sichere Investition in aufstrebende Ballungsräume,"68,88 m²",3,False,cd3cae56-809f-3055-9e0c-f4ef2410e221
75942277,"Am Mitteltännicht 2, Laubegast, Dresden",15,"[Provisionsfrei*, Balkon/Terrasse]", Frau Bettina Tennhard,False,,Wohnung,,"110.360,28 €",51.02328,13.82574,Kauf,01279,Dresden,Laubegast,ETW als Kapitalanlage - sicher vermietet!,"70,03 m²",3,False,cd3cae56-809f-3055-9e0c-f4ef2410e221
75942291,"Kamelienweg 1a, Laubegast, Dresden",15,"[Provisionsfrei*, Balkon/Terrasse]", Frau Bettina Tennhard,False,,Wohnung,,"89.621,43 €",51.02349,13.8298,Kauf,01279,Dresden,Laubegast,Investitionen für Privatpersonen - jetzt informieren!,"56,87 m²",2,False,cd3cae56-809f-3055-9e0c-f4ef2410e221
75942309,"Am Mitteltännicht 26, Laubegast, Dresden",15,"[Provisionsfrei*, Balkon/Terrasse]", Frau Bettina Tennhard,False,,Wohnung,,"47.891,60 €",51.0217,13.82881,Kauf,01279,Dresden,Laubegast,Immobilieninvestitionen für Privatkunden - www.industria-wohnen.de,"30,39 m²",1,False,cd3cae56-809f-3055-9e0c-f4ef2410e221
75942312,"Kamelienweg 1a, Laubegast, Dresden",15,"[Provisionsfrei*, Balkon/Terrasse]", Frau Bettina Tennhard,False,,Wohnung,,"112.330,15 €",51.02349,13.8298,Kauf,01279,Dresden,Laubegast,Erfolgreich investieren - wir informieren Sie gerne über Ihre Möglichkeiten!,"71,28 m²",3,False,cd3cae56-809f-3055-9e0c-f4ef2410e221
75942324,"Am Mitteltännicht 26, Laubegast, Dresden",15,"[Provisionsfrei*, Balkon/Terrasse]", Frau Bettina Tennhard,False,,Wohnung,,"45.118,02 €",51.0217,13.82881,Kauf,01279,Dresden,Laubegast,Investitionen für Ihre Zukunft! Kapitalanlagen der Industria Wohnen,"28,63 m²",1,False,cd3cae56-809f-3055-9e0c-f4ef2410e221
75942332,"Am Mitteltännicht 12, Laubegast, Dresden",15,"[Provisionsfrei*, Balkon/Terrasse]", Frau Bettina Tennhard,False,,Wohnung,,"81.962,56 €",51.02254,13.82668,Kauf,01279,Dresden,Laubegast,"2 Zimmer, sicher vermietet in guter Lage in Dresden! Jetzt investieren!","52,01 m²",2,False,cd3cae56-809f-3055-9e0c-f4ef2410e221
75942342,"Löscherstraße 35, Striesen-West, Dresden",15,"[Provisionsfrei*, Balkon/Terrasse]", Frau Bettina Tennhard,False,,Wohnung,,"102.638,99 €",51.048,13.78074,Kauf,01309,Dresden,Striesen-West,"Ihre Anlagechance - Kapitalanlage, sicher vermietet in Dresden","64,29 m²",2,False,cd3cae56-809f-3055-9e0c-f4ef2410e221
75942351,"Tauernstraße 32a, Laubegast, Dresden",15,"[Provisionsfrei*, Balkon/Terrasse]", Frau Bettina Tennhard,False,,Wohnung,,"126.355,66 €",51.02315,13.83038,Kauf,01279,Dresden,Laubegast,Investieren in die Zukunft - Kapitalanlage in Dresden,"80,18 m²",3,False,cd3cae56-809f-3055-9e0c-f4ef2410e221
75942359,"Mosenstraße 40, Striesen-West, Dresden",15,"[Provisionsfrei*, Balkon/Terrasse]", Frau Bettina Tennhard,False,,Wohnung,,"86.115,21 €",51.04795,13.77979,Kauf,01309,Dresden,Striesen-West,Heute an morgen denken - jetzt investieren!,"53,94 m²",2,False,cd3cae56-809f-3055-9e0c-f4ef2410e221
75942374,"Am Mitteltännicht 14, Laubegast, Dresden",15,"[Provisionsfrei*, Balkon/Terrasse]", Frau Bettina Tennhard,False,,Wohnung,,"46.110,83 €",51.02236,13.82707,Kauf,01279,Dresden,Laubegast,Investieren Sie in Ihre Zukunft! Sicher und rentabel!,"29,26 m²",1,False,cd3cae56-809f-3055-9e0c-f4ef2410e221
75942381,"Tauernstraße 32a, Laubegast, Dresden",15,"[Provisionsfrei*, Balkon/Terrasse]", Frau Bettina Tennhard,False,,Wohnung,,"126.938,75 €",51.02315,13.83038,Kauf,01279,Dresden,Laubegast,Auf Wunsch 10 J. Mietsicherheit bei Ihrer Kapitalanlage!,"80,55 m²",3,False,cd3cae56-809f-3055-9e0c-f4ef2410e221
75942397,"Am Mitteltännicht 14, Laubegast, Dresden",15,"[Provisionsfrei*, Balkon/Terrasse]", Frau Bettina Tennhard,False,,Wohnung,,"47.891,60 €",51.02236,13.82707,Kauf,01279,Dresden,Laubegast,Haben Sie schon eine ETW als Kapitalanlage? Jetzt informieren!,"30,39 m²",1,False,cd3cae56-809f-3055-9e0c-f4ef2410e221
75942416,"Löscherstraße 39, Striesen-West, Dresden",18,"[Provisionsfrei*, Balkon/Terrasse]", Frau Bettina Tennhard,False,,Wohnung,,115.226 €,51.04792,13.78041,Kauf,01309,Dresden,Striesen-West,Mieten Sie noch oder Wohnen Sie schon? Freie ETW - jetzt sichern!,"67,78 m²",2,False,cd3cae56-809f-3055-9e0c-f4ef2410e221
75942425,"Mosenstraße 40, Striesen-West, Dresden",15,[Provisionsfrei*], Frau Bettina Tennhard,False,,Wohnung,,83.018 €,51.04795,13.77979,Kauf,01309,Dresden,Striesen-West,Frei ab 01.08.2014 - guter Schnitt und ruhige Lage,52 m²,2,False,cd3cae56-809f-3055-9e0c-f4ef2410e221
75948282,"Wachwitzer Weinberg  1, Loschwitz/Wachwitz, Dresden",36,"[Balkon/Terrasse, Garten]",Frau Sylke Hoch,True,,Wohnung,1.810 €,,51.0446,13.82794,Miete,01326,Dresden,Loschwitz/Wachwitz,Residieren in Dresden-Wachwitz * exklusive 4-Zimmer-Maisonette-Whg. mit Balkon,"201,89 m²",4,False,47c667c8-f0fa-3733-a907-9cf053b451c4
75998116,"Coswiger Str. 8, Pieschen-Nord/Trachenberge, Dresden",7,[Balkon/Terrasse], Vermietungszentrum,False,,Wohnung,"309,04 €",,51.08031,13.7294,Miete,01127,Dresden,Pieschen-Nord/Trachenberge,Mit Wohnküche und Balkon - Nette/r Nachmieter/in ab sofort gesucht,"52,38 m²",2,False,2e3e8f1d-238d-3764-a508-c1d97ea92e65
76006156,"Cotta, Dresden",12,[Garten], Team Verkauf und Vermietung,True,,Wohnung,340 €,,,,Miete,01157,Dresden,Cotta,Bad mit Wanne und Fenster + separate Küche - WG-geeignet!,"54,1 m²",2,False,02b6a8f0-edd7-37cb-a743-8759b57ea77f
76006157,"Schweizstraße 3, Großzschachwitz, Dresden",15,"[Einbauküche, Garten]",Herr Steffen Hallmann,True,,Wohnung,,95.800 €,50.99987,13.83736,Kauf,01259,Dresden,Großzschachwitz,"Eigennutzer!!*Wohnung mit klasse Grundriss, Laminat, EBK, Wohnküche,Tageslichtbad,Ankleide..*","71,68 m²",3,False,88fe3eac-769c-367c-a665-c30637a4308e
76009550,"Schweizstraße 1, Großzschachwitz, Dresden",14,"[Einbauküche, Garten]",Herr Steffen Hallmann,True,,Wohnung,,96.600 €,50.9999,13.83706,Kauf,01259,Dresden,Großzschachwitz,"++Schicke Etagenwohnung mit klasse Grundriss, EBK, Wohnküche,Tageslichtbad, Ankleide- o.Abstellraum!","71,95 m²",3,False,88fe3eac-769c-367c-a665-c30637a4308e
76016491,"Grillparzer Straße 30, Cotta, Dresden",8,"[Balkon/Terrasse, Garten]",Frau Kornelia Klügel,False,,Wohnung,408 €,,51.05609,13.68298,Miete,01157,Dresden,Cotta,Pfiffig und optimal geschnittene Wohnung!,68 m²,2,False,68c163b7-c017-31c8-aa68-f80250f17998
76049693,"Am heiderand  2, Bühlau/Weißer Hirsch, Dresden",7,[Balkon/Terrasse],,False,,Wohnung,730 €,,51.06216,13.83125,Miete,01324,Dresden,Bühlau/Weißer Hirsch,Penthaus am Wald ,75 m²,2,True,NaN
76059047,"Hosterwitz/Pillnitz, Dresden",6,[Garten],Herr Wilfried Franke,True,,Wohnung,,128.000 €,,,Kauf,01326,Dresden,Hosterwitz/Pillnitz,"Niederpoyritz - 3-Zi.-Wohnung mit Balkon, Gartenanteil und TG-Stellplatz",72 m²,3,False,b18cbdc2-135c-3dee-bc73-6833834f252b
76075070,"Äußere Neustadt (Antonstadt), Dresden",3,[], Team Verkauf und Vermietung,True,,Wohnung,"488,13 €",,,,Miete,01097,Dresden,Äußere Neustadt (Antonstadt),Sofortbezug möglich !!! Dachwohnung mit Lift + Laminat + Wohnküche !!!,"68,75 m²",2,False,02b6a8f0-edd7-37cb-a743-8759b57ea77f
76080853,"Naußlitz, Dresden",7,"[Provisionsfrei*, Garten]",Herr Rico Kirst,False,,Wohnung,,48.000 €,,,Kauf,01159,Dresden,Naußlitz,Heute an Morgen denken - Jetzt investieren,"53,11 m²",2,False,ebf68b54-e5c7-3f36-888f-2a15116d2be8
76090434,"Kleinzschachwitz, Dresden",7,"[Balkon/Terrasse, Einbauküche]", Dipl.-Ing. Axel Beyer,True,,Wohnung,,79.500 €,,,Kauf,01259,Dresden,Kleinzschachwitz,"Garantiert RUHIGE, GRÜNE u. ERHOLSAME Wohnanlage - in Kleinzschachwitz!","54,34 m²",2,False,8df2c949-da67-395e-9342-63ef25999e76
76096172,"Reick, Dresden",1,"[Einbauküche, Garten]", iMMOSUCH GMBH,True,,Wohnung,,110.000 €,,,Kauf,01237,Dresden,Reick,Schöne 2-Raum-Wohnung mit Einbauküche,62 m²,2,False,74b8c399-fd22-39af-8429-a206181883c4
76096199,"Coschütz/Gittersee, Dresden",1,[], iMMOSUCH GmbH,False,1.010 m²,Haus,,580.000 €,,,Kauf,01189,Dresden,Coschütz/Gittersee,Saniertes Mehrfamilienhaus in Coschütz / Gittersee,277 m²,12,False,f7775ab2-850f-3be2-85f7-bee548cf9dbb
76096231,"Reick, Dresden",1,[Balkon/Terrasse], iMMOSUCH GMBH,True,,Wohnung,,97.000 €,,,Kauf,01237,Dresden,Reick,Schönes Aparment mit EBK und Balkon,54 m²,1,False,74b8c399-fd22-39af-8429-a206181883c4
76096284,"Reick, Dresden",1,[Balkon/Terrasse], iMMOSUCH GMBH,True,,Wohnung,,115.000 €,,,Kauf,01237,Dresden,Reick,Traumhafte Dachgeschosswohnung mit Balkon,60 m²,2,False,74b8c399-fd22-39af-8429-a206181883c4
76104865,"Striesen-Ost, Dresden",10,"[Einbauküche, Garten]", Jan Bikowski,True,,Wohnung,,79.500 €,,,Kauf,01277,Dresden,Striesen-Ost,Elbhangblick: Wohnung mit Parkett und EBK in Striesen!,"55,01 m²",2,False,4b070c31-b565-3f74-8b4b-b421a51dbd0f
76104901,"Tolkewitz/Seidnitz-Nord, Dresden",9,[], Thomas Hemel,True,,Wohnung,,59.000 €,,,Kauf,01279,Dresden,Tolkewitz/Seidnitz-Nord,Ruhig gelegene 2-Zimmer-Wohnung,48 m²,2,False,08087b45-bd0a-36c6-b79b-52c785d535d0
76104921,"Prohlis-Nord, Dresden",8,"[Balkon/Terrasse, Garten]", Thomas Hemel,True,,Wohnung,,75.000 €,,,Kauf,01237,Dresden,Prohlis-Nord,Solide Kapitalanlage!,"61,74 m²",2,False,08087b45-bd0a-36c6-b79b-52c785d535d0
76108615,"Äußere Neustadt (Antonstadt), Dresden",6,[], Susann Müller,True,,Wohnung,"488,13 €",,,,Miete,01097,Dresden,Äußere Neustadt (Antonstadt),DER IMMO TIP Großzügige 2-Raumwohnung in der Dresdner Neustadt,69 m²,2,False,181a5f40-51b7-3ed1-a866-69fbbf3ba5f5
76109953,"Strehlen, Dresden",8,"[Provisionsfrei*, Balkon/Terrasse]", Manfred Herbold,False,,Wohnung,,110.000 €,,,Kauf,01219,Dresden,Strehlen,Moderne Studentenapartments -Nur noch wenige Wohnungen frei!- Typ Archimedes,"38,58 m²",1,False,c030faa2-cc97-3694-9655-88efb58811a6
76109967,"Strehlen, Dresden",8,"[Provisionsfrei*, Balkon/Terrasse]", Manfred Herbold,True,,Wohnung,,99.500 €,,,Kauf,01219,Dresden,Strehlen,Moderne Studentenapartments - Jetzt Besichtigungstermin der Musterwohnung vereinbaren! Typ Erasmus,"35,69 m²",1,False,c030faa2-cc97-3694-9655-88efb58811a6
76109977,"Strehlen, Dresden",9,"[Provisionsfrei*, Balkon/Terrasse]", Manfred Herbold,True,,Wohnung,,99.500 €,,,Kauf,01219,Dresden,Strehlen,Moderne Studentenapartments -Nur noch wenige Wohnungen frei!! - Tayp Pascal I,"34,98 m²",1,False,c030faa2-cc97-3694-9655-88efb58811a6
76109981,"Strehlen, Dresden",9,"[Provisionsfrei*, Balkon/Terrasse, Einbauküche]", Manfred Herbold,True,,Wohnung,,99.000 €,,,Kauf,01219,Dresden,Strehlen,Moderne Studentenapartments -Nur noch wenige Wohnungen frei!- Typ Pascal II.,"34,85 m²",1,False,c030faa2-cc97-3694-9655-88efb58811a6
76109987,"Strehlen, Dresden",9,"[Provisionsfrei*, Balkon/Terrasse]", Manfred Herbold,True,,Wohnung,,98.700 €,,,Kauf,01219,Dresden,Strehlen,Moderne Studentenapartments -Nur noch wenige Wohnungen frei!! - Typ Pascal II.,"34,73 m²",1,False,c030faa2-cc97-3694-9655-88efb58811a6
76109993,"Strehlen, Dresden",9,"[Provisionsfrei*, Balkon/Terrasse]", Manfred Herbold,False,,Wohnung,,103.000 €,,,Kauf,01219,Dresden,Strehlen,Moderne Studentenapartments - Jetzt Besichtigungstermin der Musterwohnung vereinbaren! - Typ Kepler,"35,13 m²",1,False,c030faa2-cc97-3694-9655-88efb58811a6
76620778,"Tharandter Straße 105, Naußlitz, Dresden",9,"[Einbauküche, Garten]", Kerstin Mohr,True,,Wohnung,450 €,,51.02242,13.6982,Miete,01187,Dresden,Naußlitz,Loftwohnung im rekonstruierten Industrieobjekt - Super für WG´s,"48,77 m²",2,False,4b813e14-1294-30f6-abee-160210f86e5d
76712541,"Leipziger Vorstadt, Dresden",8,"[Balkon/Terrasse, Einbauküche]",Herr Marco Rumpelt,True,,Wohnung,,45.000 €,,,Kauf,01097,Dresden,Leipziger Vorstadt,"1-Zimmer-Erdgeschosswohnung mit innenliegenden Bad mit Badewanne, Einbauküche und Terrasse, 01097 DD","37,01 m²",1,False,0fa163b0-ceb1-36ae-862d-94e8193c0b3d
76722878,"Cotta, Dresden",14,[Einbauküche],Herr Christoph Käsemodel,True,,Wohnung,,79.000 €,,,Kauf,01157,Dresden,Cotta,Laden- oder Büroeinheit in Dresden-Cotta zu verkaufen!,72 m²,3,False,cda08f67-a92e-3dae-997a-9747dbfaac85
76724495,"Salzburger Str. 6k, Laubegast, Dresden",1,[Balkon/Terrasse],Frau Pilz,False,,Wohnung,460 €,,51.02769,13.83184,Miete,01279,Dresden,Laubegast,schöne große 2-Raumwohnung mit Balkon,"72,86 m²",2,False,b55bf1ac-7688-31d1-90b1-2e28e6b2cd04
76736835,"Rabenauer Str.  11, Löbtau-Süd, Dresden",17,[Balkon/Terrasse],Herr Peter  Sowade,False,,Wohnung,,94.900 €,51.04001,13.6906,Kauf,01159,Dresden,Löbtau-Süd,Ansprechende 2-Zimmer-Wohnung mit Balkon,"63,01 m²",2,False,75644adf-ab44-3adb-a1b2-15b816bf04d5
76781648,"Trachau, Dresden",8,[],Herr Jörg Märker,True,450 m²,Haus,,233.500 €,,,Kauf,01139,Dresden,Trachau,Modernes Wohnen am Elbepark,104 m²,6,False,596bae06-f9f4-31ae-aa4a-9573604a3c52
76781859,"Kleinzschachwitz, Dresden",23,[],Herr Th. Maron,True,1.269 m²,Haus,,395.000 €,,,Kauf,01259,Dresden,Kleinzschachwitz,Mehrgenerationen-Doppelhaus im Südosten von Dresden,"245,82 m²",12,False,d5fe731b-3823-3bcb-ba8f-f30fa1c22086
76799646,"Schönbrunnstraße 2, Äußere Neustadt (Antonstadt), Dresden",8,"[Einbauküche, Garten]",Herr Karsten Wilke,True,,Wohnung,189 €,,51.06927,13.74721,Miete,01097,Dresden,Äußere Neustadt (Antonstadt),WG-Zimmer! In einer 5er WG im Szeneviertel Dresden-Neustadt,"21,01 m²",1,False,3721d624-ebad-3e46-9214-dc80f87d2e82
76880331,"Reick, Dresden",5,"[Provisionsfrei*, Balkon/Terrasse]",Herr Christian Keul,False,,Wohnung,,146.947 €,,,Kauf,01237,Dresden,Reick,"Wir renovieren das Haus, Sie die Wohnung!","139,95 m²",3,False,a0c9854a-8e69-3054-9c79-664e492468c6
76887193,"Niederwaldplatz 8a, Blasewitz, Dresden",4,"[Provisionsfrei*, Balkon/Terrasse]",Herr Torsten Nagler,True,,Wohnung,,350.000 €,51.04496,13.8085,Kauf,01277,Dresden,Blasewitz,NEU in grüner Lage von Dresden-Blasewitz !,117 m²,4,False,5491690b-89df-37b6-ae6f-3765afedc015
76906736,"Eibenstocker Straße 101a, Striesen-Ost, Dresden",10,"[Provisionsfrei*, Balkon/Terrasse]", PEGASUS Residenz Dresden GmbH,True,,Wohnung,,228.000 €,51.03639,13.79876,Kauf,01277,Dresden,Striesen-Ost,"Ihre neue Eigentumswohnung im Wohnensemble ""PEGASUS RESIDENZ"": Ästhetik, Funktionalität und Individu","91,06 m²",3,False,ce74cccf-50ac-38e5-ae7d-ff739c4598c2
76906740,"Eibenstocker Straße 107a, Gruna, Dresden",11,"[Provisionsfrei*, Balkon/Terrasse]",Frau Alexandra Gärtner,True,,Wohnung,,335.000 €,51.03541,13.79975,Kauf,01277,Dresden,Gruna,"INFOTAG AM SAMSTAG, DEM 08.08. UND 15.08. VON 10-12 UHR","122,13 m²",4,False,cfcb7005-6734-3634-8d64-aafb6a7d08b4
76906746,"Hepkestraße 119, Gruna, Dresden",11,"[Provisionsfrei*, Balkon/Terrasse]",Frau Alexandra Gärtner,True,,Wohnung,,312.000 €,51.03599,13.7958,Kauf,01277,Dresden,Gruna,"INFOTAG AM SAMSTAG, DEM 08.08. UND 15.08. VON 10-12 UHR","123,32 m²",4,False,cfcb7005-6734-3634-8d64-aafb6a7d08b4
76906758,"Eibenstocker Straße 101, Gruna, Dresden",11,"[Provisionsfrei*, Balkon/Terrasse]",Frau Alexandra Gärtner,True,,Wohnung,,385.000 €,51.03541,13.79975,Kauf,01277,Dresden,Gruna,"INFOTAG AM SAMSTAG, DEM 08.08. UND 15.08. VON 10-12 UHR","142,43 m²",4,False,cfcb7005-6734-3634-8d64-aafb6a7d08b4
76906762,"Eibenstocker Straße 113, Gruna, Dresden",11,"[Provisionsfrei*, Balkon/Terrasse]",Frau Alexandra Gärtner,True,,Wohnung,,270.000 €,51.03541,13.79975,Kauf,01277,Dresden,Gruna,"INFOTAG AM SAMSTAG, DEM 08.08. UND 15.08. VON 10-12 UHR","108,56 m²",4,False,cfcb7005-6734-3634-8d64-aafb6a7d08b4
76906912,"Eibenstocker Straße 107, Gruna, Dresden",11,"[Provisionsfrei*, Balkon/Terrasse]",Frau Alexandra Gärtner,True,,Wohnung,,275.000 €,51.03541,13.79975,Kauf,01277,Dresden,Gruna,"INFOTAG AM SAMSTAG, DEM 08.08. UND 15.08. VON 10-12 UHR","108,08 m²",4,False,cfcb7005-6734-3634-8d64-aafb6a7d08b4
76906940,"Eibenstocker Straße 101, Gruna, Dresden",11,"[Provisionsfrei*, Balkon/Terrasse]",Frau Alexandra Gärtner,True,,Wohnung,,228.000 €,51.03541,13.79975,Kauf,01277,Dresden,Gruna,"INFOTAG AM SAMSTAG, DEM 08.08. UND 15.08. VON 10-12 UHR","91,14 m²",3,False,cfcb7005-6734-3634-8d64-aafb6a7d08b4
76906950,"Eibenstocker Straße 113a, Gruna, Dresden",11,"[Provisionsfrei*, Balkon/Terrasse]",Frau Alexandra Gärtner,True,,Wohnung,,345.000 €,51.03541,13.79975,Kauf,01277,Dresden,Gruna,"INFOTAG AM SAMSTAG, DEM 08.08. UND 15.08. VON 10-12 UHR","142,32 m²",5,False,cfcb7005-6734-3634-8d64-aafb6a7d08b4
76909806,"Robert-Berndt-Str. 36, Leuben, Dresden",2,[], Vermietungsteam Dresden,True,,Wohnung,329 €,,51.01099,13.82239,Miete,01257,Dresden,Leuben,Vermietung ab 01.09.2015 - nach Balkonanbau,"73,05 m²",3,False,c046b743-8c52-376c-999f-371dc42cf575
76910929,"Hainweg  4, Bühlau/Weißer Hirsch, Dresden",1,"[Balkon/Terrasse, Garten]",Frau Stefanie  Alschwee,False,,Wohnung,1.400 €,,51.06312,13.82505,Miete,01324,Dresden,Bühlau/Weißer Hirsch,*Exclusive Penthousewohnung *Turmzimmer *umlaufende Terrasse *Marmorböden *Fußbodenheizung,147 m²,5,False,0b7458ac-bf56-3575-a36c-7f768a7310b2
76940662,"Lockwitz, Dresden",8,[],Herr Jörg Märker,True,610 m²,Haus,,222.500 €,,,Kauf,01217,Dresden,Lockwitz,Wohnen im Dresdener Süden. Klein und fein.,100 m²,5,False,596bae06-f9f4-31ae-aa4a-9573604a3c52
76940834,"Löbtau-Süd, Dresden",1,[Balkon/Terrasse],Frau Renata Pötzschig,False,,Wohnung,,96.500 €,,,Kauf,01159,Dresden,Löbtau-Süd,"""klein und fein"" ",56 m²,2,False,23857db6-913e-374b-9b5f-751744be0403
76972499,"Leuben, Dresden",2,[],Frau Nicole Hirsch,False,,Wohnung,,48.320 €,,,Kauf,01257,Dresden,Leuben,Eigentumswohnung in Dresden,"35,79 m²",2,False,2bc02515-f8b6-3dc1-b183-ee1d485c3607
76972502,"Leuben, Dresden",2,[],Frau Nicole Hirsch,False,,Wohnung,,79.680 €,,,Kauf,01257,Dresden,Leuben,2-Raum-Eigentumswohnung in Dresden,"59,02 m²",2,False,2bc02515-f8b6-3dc1-b183-ee1d485c3607
76976569,"Pieschen-Süd, Dresden",12,[Einbauküche],Frau Sabine Socha,True,,Wohnung,,65.000 €,,,Kauf,01127,Dresden,Pieschen-Süd,"Lichtdurchflutete kl. schicke 2-R-DG-Wohng. m. EBK in DD-Pieschen, elbnah","44,34 m²",2,False,e1b44548-d76b-39d6-a168-11eedfebe535
76990981,"Kurhausstr. 6, Kleinzschachwitz, Dresden",7,"[Provisionsfrei*, Balkon/Terrasse, Einbauküche, Garten]", Bettina Klein,True,,Wohnung,,269.000 €,51.00544,13.85154,Kauf,01259,Dresden,Kleinzschachwitz,Familienfreundliches wohnen im Grünen,116 m²,3,False,258e9928-66fa-3449-b4bc-b45ff79ae080
